[{"_id":{"$oid":"5715558524390aed5e6d286f"},"coords":{"type":"Point","coordinates":[-71.076536,42.370772]},"neighs":["place-spmnl"],"routes":["green"],"name":"Lechmere Station","id":"place-lech","node":"place-lech","rank":0.5069814636491594},
{"_id":{"$oid":"5715558524390aed5e6d2890"},"coords":{"type":"Point","coordinates":[-71.067666,42.366664]},"neighs":["place-north","place-lech"],"routes":["green"],"name":"Science Park Station","id":"place-spmnl","node":"place-spmnl","rank":0.8322564318031622},
{"_id":{"$oid":"5715558524390aed5e6d2879"},"coords":{"type":"Point","coordinates":[-71.06129,42.365577]},"neighs":["place-bomnl","place-haecl","place-spmnl","place-ccmnl"],"routes":["blue","green","orange"],"name":"North Station","id":"place-north","node":"place-north","rank":1.1792743302410271},
{"_id":{"$oid":"5715558524390aed5e6d2863"},"coords":{"type":"Point","coordinates":[-71.05829,42.363021]},"neighs":["place-bomnl","place-north","place-gover","place-state"],"routes":["orange","blue","green"],"name":"Haymarket Station","id":"place-haecl","node":"place-haecl","rank":1.0341908490444303},
{"_id":{"$oid":"5715558524390aed5e6d2860"},"coords":{"type":"Point","coordinates":[-71.059215,42.359705]},"neighs":["place-bomnl","place-haecl","place-state","place-dwnxg","place-pktrm"],"routes":["red","orange","green","blue"],"name":"Government Center Station","id":"place-gover","node":"place-gover","rank":1.1966036844728112},
{"_id":{"$oid":"5715558524390aed5e6d287e"},"coords":{"type":"Point","coordinates":[-71.0624242,42.35639457]},"neighs":["place-state","place-dwnxg","place-gover","place-chncl","place-chmnl","place-boyls"],"routes":["orange","red","blue","green"],"name":"Park Street Station","id":"place-pktrm","node":"place-pktrm","rank":1.3950770579511644},
{"_id":{"$oid":"5715558524390aed5e6d2842"},"coords":{"type":"Point","coordinates":[-71.06459,42.35302]},"neighs":["place-chncl","place-armnl","place-dwnxg","place-tumnl","place-pktrm"],"routes":["red","orange","green"],"name":"Boylston Street Station","id":"place-boyls","node":"place-boyls","rank":1.1305934119549559},
{"_id":{"$oid":"5715558524390aed5e6d2837"},"coords":{"type":"Point","coordinates":[-71.070893,42.351902]},"neighs":["143","place-coecl","place-boyls"],"routes":["39","green"],"name":"Arlington Station","id":"place-armnl","node":"place-armnl","rank":0.6586125056888805},
{"_id":{"$oid":"5715558524390aed5e6d2854"},"coords":{"type":"Point","coordinates":[-71.077447,42.349974]},"neighs":["23391","place-bbsta","143","175","place-hymnl","place-armnl","place-prmnl"],"routes":["orange","39","green-e","green"],"name":"Copley Station","id":"place-coecl","node":"place-coecl","rank":1.2471292390519473},
{"_id":{"$oid":"5715558524390aed5e6d2881"},"coords":{"type":"Point","coordinates":[-71.081696,42.34557]},"neighs":["91","89","188","11390","1399","place-coecl","place-masta","place-symcl"],"routes":["orange","1","39","green-e"],"name":"Prudential Station","id":"place-prmnl","node":"place-prmnl","rank":1.1224571591473629},
{"_id":{"$oid":"5715558524390aed5e6d2898"},"coords":{"type":"Point","coordinates":[-71.085056,42.342687]},"neighs":["81317","88","91317","188","place-masta","1399","89","place-prmnl","91","place-nuniv"],"routes":["39","orange","1","green-e"],"name":"Symphony Station","id":"place-symcl","node":"place-symcl","rank":1.2992747129318503},
{"_id":{"$oid":"5715558524390aed5e6d287b"},"coords":{"type":"Point","coordinates":[-71.088806,42.340401]},"neighs":["place-masta","188","17862","place-rugg","89","91317","81317","place-symcl","place-mfa"],"routes":["23","orange","1","39","green-e"],"name":"Northeastern University Station","id":"place-nuniv","node":"place-nuniv","rank":1.202288794217334},
{"_id":{"$oid":"5715558524390aed5e6d2873"},"coords":{"type":"Point","coordinates":[-71.095512,42.337711]},"neighs":["31317","51317","place-lngmd","place-nuniv"],"routes":["39","green-e"],"name":"Museum of Fine Arts Station","id":"place-mfa","node":"place-mfa","rank":0.5950716679910738},
{"_id":{"$oid":"5715558524390aed5e6d2870"},"coords":{"type":"Point","coordinates":[-71.100052,42.33596]},"neighs":["51317","13590","1317","1362","1360","11780","21317","31317","11781","place-mfa","place-brmnl"],"routes":["66","39","57","green-e"],"name":"Longwood Medical Area Station","id":"place-lngmd","node":"place-lngmd","rank":1.331893184449004},
{"_id":{"$oid":"5715558524390aed5e6d2846"},"coords":{"type":"Point","coordinates":[-71.104609,42.334229]},"neighs":["place-mispk","1315","31317","1365","21317","1360","1362","1317","1363","place-lngmd","place-fenwd"],"routes":["66","39","green-e"],"name":"Brigham Circle Station","id":"place-brmnl","node":"place-brmnl","rank":1.1880450810075458},
{"_id":{"$oid":"5715558524390aed5e6d285c"},"coords":{"type":"Point","coordinates":[-71.105728,42.333706]},"neighs":["1315","1365","21317","1360","1362","1317","1363","place-brmnl","place-mispk"],"routes":["39","66","green-e"],"name":"Fenwood Road Station","id":"place-fenwd","node":"place-fenwd","rank":0.9816822503504405},
{"_id":{"$oid":"5715558524390aed5e6d2874"},"coords":{"type":"Point","coordinates":[-71.109756,42.333195]},"neighs":["1317","place-brmnl","65741","1363","1366","6575","1365","1315","place-bckhl","place-fenwd","1362","place-rvrwy"],"routes":["66","39","green-e"],"name":"Mission Park Station","id":"place-mispk","node":"place-mispk","rank":1.2883319782243554},
{"_id":{"$oid":"5715558524390aed5e6d2889"},"coords":{"type":"Point","coordinates":[-71.111931,42.331684]},"neighs":["place-bvmnl","6574","place-hsmnl","1365","65741","1315","1366","1526","6575","place-bckhl","place-mispk"],"routes":["green-d","66","39","green-e"],"name":"Riverway Station","id":"place-rvrwy","node":"place-rvrwy","rank":1.289945040396686},
{"_id":{"$oid":"5715558524390aed5e6d283b"},"coords":{"type":"Point","coordinates":[-71.111313,42.330139]},"neighs":["1365","place-mispk","1315","1366","1526","6575","6573","6574","65741","place-hsmnl","place-rvrwy"],"routes":["66","39","green-e"],"name":"Back of the Hill Station","id":"place-bckhl","node":"place-bckhl","rank":1.2922972295780042},
{"_id":{"$oid":"5715558524390aed5e6d2866"},"coords":{"type":"Point","coordinates":[-71.110559,42.328681]},"neighs":["1366","6575","place-rvrwy","6573","6574","1315","65741","place-bckhl"],"routes":["39","66","green-e"],"name":"Heath Street Station","id":"place-hsmnl","node":"place-hsmnl","rank":0.9826836260112207},
{"_id":{"$oid":"5715558524390aed5e6d2868"},"coords":{"type":"Point","coordinates":[-71.087903,42.347888]},"neighs":["95","91","11390","93","place-coecl","place-kencl"],"routes":["39","1","green"],"name":"Hynes Convention Center","id":"place-hymnl","node":"place-hymnl","rank":1.0407242568995807},
{"_id":{"$oid":"5715558524390aed5e6d286b"},"coords":{"type":"Point","coordinates":[-71.095169,42.348949]},"neighs":["place-bland","place-hymnl","place-smary","place-fenwy"],"routes":["green-b","green","green-c","green-d"],"name":"Kenmore Station","id":"place-kencl","node":"place-kencl","rank":0.7394354902255129},
{"_id":{"$oid":"5715558524390aed5e6d285d"},"coords":{"type":"Point","coordinates":[-71.104187,42.345394]},"neighs":["1809","place-smary","1808","place-buest","11520","1807","place-longw","place-kencl"],"routes":["green-b","green-c","57","green-d"],"name":"Fenway Station","id":"place-fenwy","node":"place-fenwy","rank":1.3390388317263713},
{"_id":{"$oid":"5715558524390aed5e6d2871"},"coords":{"type":"Point","coordinates":[-71.110451,42.341145]},"neighs":["place-kntst","place-hwsst","place-bvmnl","place-fenwy"],"routes":["green-c","green-d"],"name":"Longwood Station","id":"place-longw","node":"place-longw","rank":0.8351278439279041},
{"_id":{"$oid":"5715558524390aed5e6d284b"},"coords":{"type":"Point","coordinates":[-71.116296,42.332774]},"neighs":["1366","6575","1367","1526","place-rvrwy","place-longw","place-brkhl"],"routes":["39","green-e","66","green-d"],"name":"Brookline Village Station","id":"place-bvmnl","node":"place-bvmnl","rank":1.1354876119441089},
{"_id":{"$oid":"5715558524390aed5e6d2845"},"coords":{"type":"Point","coordinates":[-71.126999,42.331333]},"neighs":["place-bvmnl","place-bcnfd"],"routes":["green-d"],"name":"Brookline Hills Station","id":"place-brkhl","node":"place-brkhl","rank":0.47767837130199275},
{"_id":{"$oid":"5715558524390aed5e6d283c"},"coords":{"type":"Point","coordinates":[-71.140823,42.335846]},"neighs":["place-engav","place-denrd","place-tapst","place-rsmnl","place-brkhl"],"routes":["green-c","green-d"],"name":"Beaconsfield Station","id":"place-bcnfd","node":"place-bcnfd","rank":1.1145740954309822},
{"_id":{"$oid":"5715558524390aed5e6d2887"},"coords":{"type":"Point","coordinates":[-71.148952,42.335027]},"neighs":["place-chill","1028","1027","place-engav","21917","place-clmnl","place-chhil","place-bcnfd"],"routes":["green-b","green-c","86","green-d"],"name":"Reservoir Station","id":"place-rsmnl","node":"place-rsmnl","rank":1.420155168470051},
{"_id":{"$oid":"5715558524390aed5e6d284d"},"coords":{"type":"Point","coordinates":[-71.165314,42.326653]},"neighs":["place-newto","place-rsmnl"],"routes":["green-d"],"name":"Chestnut Hill Station D Riverside Line","id":"place-chhil","node":"place-chhil","rank":0.6558609846615976},
{"_id":{"$oid":"5715558524390aed5e6d2878"},"coords":{"type":"Point","coordinates":[-71.192429,42.329391]},"neighs":["place-newtn","place-chhil"],"routes":["green-d"],"name":"Newton Centre Station","id":"place-newto","node":"place-newto","rank":0.8137455797052728},
{"_id":{"$oid":"5715558524390aed5e6d2877"},"coords":{"type":"Point","coordinates":[-71.206116,42.321735]},"neighs":["place-eliot","place-newto"],"routes":["green-d"],"name":"Newton Highlands Station","id":"place-newtn","node":"place-newtn","rank":0.9387947558461136},
{"_id":{"$oid":"5715558524390aed5e6d2859"},"coords":{"type":"Point","coordinates":[-71.216713,42.319023]},"neighs":["place-newtn","place-waban"],"routes":["green-d"],"name":"Eliot Station","id":"place-eliot","node":"place-eliot","rank":0.9824679817864083},
{"_id":{"$oid":"5715558524390aed5e6d289b"},"coords":{"type":"Point","coordinates":[-71.230728,42.325943]},"neighs":["place-woodl","place-eliot"],"routes":["green-d"],"name":"Waban Station","id":"place-waban","node":"place-waban","rank":1.08618694433076},
{"_id":{"$oid":"5715558524390aed5e6d28a1"},"coords":{"type":"Point","coordinates":[-71.244301,42.333374]},"neighs":["place-waban","place-river"],"routes":["green-d"],"name":"Woodland Station","id":"place-woodl","node":"place-woodl","rank":1.127079323599183},
{"_id":{"$oid":"5715558524390aed5e6d2886"},"coords":{"type":"Point","coordinates":[-71.251742,42.337059]},"neighs":["place-woodl"],"routes":["green-d"],"name":"Riverside Station","id":"place-river","node":"place-river","rank":0.6517899660467515},
{"_id":{"$oid":"5715558524390aed5e6d288d"},"coords":{"type":"Point","coordinates":[-71.107353,42.345974]},"neighs":["place-bucen","11520","1809","1807","1808","place-hwsst","place-fenwy","place-kencl"],"routes":["green-b","green-d","57","green-c"],"name":"St. Marys Street Station","id":"place-smary","node":"place-smary","rank":1.3577294746793795},
{"_id":{"$oid":"5715558524390aed5e6d2867"},"coords":{"type":"Point","coordinates":[-71.111145,42.344906]},"neighs":["place-longw","place-kntst","place-smary"],"routes":["green-d","green-c"],"name":"Hawes Street Station","id":"place-hwsst","node":"place-hwsst","rank":0.6830480008383758},
{"_id":{"$oid":"5715558524390aed5e6d286d"},"coords":{"type":"Point","coordinates":[-71.114197,42.344074]},"neighs":["place-hwsst","place-longw","place-stpul"],"routes":["green-d","green-c"],"name":"Kent Street Station","id":"place-kntst","node":"place-kntst","rank":0.7432838248049628},
{"_id":{"$oid":"5715558524390aed5e6d2895"},"coords":{"type":"Point","coordinates":[-71.116997,42.343327]},"neighs":["1372","place-cool","place-kntst"],"routes":["66","green-c"],"name":"Saint Paul Street","id":"place-stpul","node":"place-stpul","rank":0.7812938252452982},
{"_id":{"$oid":"5715558524390aed5e6d2855"},"coords":{"type":"Point","coordinates":[-71.121201,42.342213]},"neighs":["1371","1373","1372","place-stpul","place-sumav"],"routes":["66","green-c"],"name":"Coolidge Corner Station","id":"place-cool","node":"place-cool","rank":1.2328883815001759},
{"_id":{"$oid":"5715558524390aed5e6d2897"},"coords":{"type":"Point","coordinates":[-71.12561,42.34111]},"neighs":["1371","place-fbkst","1372","place-cool","1373","place-bndhl"],"routes":["66","green-c"],"name":"Summit Avenue Station","id":"place-sumav","node":"place-sumav","rank":1.5285291599949948},
{"_id":{"$oid":"5715558524390aed5e6d2840"},"coords":{"type":"Point","coordinates":[-71.129082,42.340023]},"neighs":["place-fbkst","place-sumav"],"routes":["green-c"],"name":"Brandon Hall Station","id":"place-bndhl","node":"place-bndhl","rank":0.6253161990737919},
{"_id":{"$oid":"5715558524390aed5e6d285b"},"coords":{"type":"Point","coordinates":[-71.131073,42.339725]},"neighs":["place-sumav","place-bcnwa","place-bndhl"],"routes":["green-c"],"name":"Fairbanks Station","id":"place-fbkst","node":"place-fbkst","rank":0.9066304782839336},
{"_id":{"$oid":"5715558524390aed5e6d283d"},"coords":{"type":"Point","coordinates":[-71.13533,42.339394]},"neighs":["place-tapst","place-fbkst"],"routes":["green-c"],"name":"Washington Square Station","id":"place-bcnwa","node":"place-bcnwa","rank":0.6426569756864016},
{"_id":{"$oid":"5715558524390aed5e6d2899"},"coords":{"type":"Point","coordinates":[-71.138702,42.338459]},"neighs":["place-bcnfd","place-denrd","place-bcnwa"],"routes":["green-d","green-c"],"name":"Tappan Street Station","id":"place-tapst","node":"place-tapst","rank":0.8230242408685609},
{"_id":{"$oid":"5715558524390aed5e6d2857"},"coords":{"type":"Point","coordinates":[-71.141853,42.337807]},"neighs":["place-bcnfd","place-engav","place-tapst"],"routes":["green-d","green-c"],"name":"Dean Road Station","id":"place-denrd","node":"place-denrd","rank":0.7395331537627631},
{"_id":{"$oid":"5715558524390aed5e6d285a"},"coords":{"type":"Point","coordinates":[-71.14566,42.336971]},"neighs":["place-bcnfd","place-rsmnl","21917","place-denrd","place-clmnl"],"routes":["green-d","86","green-c"],"name":"Englewood Avenue Station","id":"place-engav","node":"place-engav","rank":0.9713677387945522},
{"_id":{"$oid":"5715558524390aed5e6d2852"},"coords":{"type":"Point","coordinates":[-71.149326,42.336142]},"neighs":["1029","place-chill","1028","place-rsmnl","1027","21917","place-engav"],"routes":["green-b","86","green-d","green-c"],"name":"Cleveland Circle Station","id":"place-clmnl","node":"place-clmnl","rank":1.096880264358695},
{"_id":{"$oid":"5715558524390aed5e6d283e"},"coords":{"type":"Point","coordinates":[-71.100258,42.349293]},"neighs":["1809","1808","place-buest","place-kencl"],"routes":["57","green","green-c","green-d","green-b"],"name":"Blandford Street Station","id":"place-bland","node":"place-bland","rank":0.7300598196442802},
{"_id":{"$oid":"5715558524390aed5e6d2849"},"coords":{"type":"Point","coordinates":[-71.103889,42.349735]},"neighs":["1807","place-fenwy","1809","place-bucen","1808","place-bland"],"routes":["green-d","57","green-b"],"name":"Boston University East Station","id":"place-buest","node":"place-buest","rank":1.017237800581269},
{"_id":{"$oid":"5715558524390aed5e6d2848"},"coords":{"type":"Point","coordinates":[-71.106865,42.350082]},"neighs":["place-smary","1808","1809","place-buwst","place-buest"],"routes":["green-c","57","green-b"],"name":"Boston University Central Station","id":"place-bucen","node":"place-bucen","rank":0.874564446591294},
{"_id":{"$oid":"5715558524390aed5e6d284a"},"coords":{"type":"Point","coordinates":[-71.113876,42.350941]},"neighs":["place-plsgr","956","place-bucen","place-stplb"],"routes":["57","green-b"],"name":"Boston University West Station","id":"place-buwst","node":"place-buwst","rank":0.7410759365873736},
{"_id":{"$oid":"5715558524390aed5e6d2894"},"coords":{"type":"Point","coordinates":[-71.116104,42.3512]},"neighs":["place-babck","958","956","place-plsgr","place-buwst"],"routes":["57","green-b"],"name":"Saint Paul Street","id":"place-stplb","node":"place-stplb","rank":0.8840920831202974},
{"_id":{"$oid":"5715558524390aed5e6d287f"},"coords":{"type":"Point","coordinates":[-71.118889,42.351521]},"neighs":["place-buwst","959","956","958","place-stplb","place-babck"],"routes":["57","green-b"],"name":"Pleasant Street Station","id":"place-plsgr","node":"place-plsgr","rank":1.0356124812276593},
{"_id":{"$oid":"5715558524390aed5e6d2839"},"coords":{"type":"Point","coordinates":[-71.12165,42.35182]},"neighs":["956","place-stplb","958","place-plsgr","960","959","place-brico"],"routes":["57","green-b"],"name":"Babcock Street Station","id":"place-babck","node":"place-babck","rank":1.1713376273745872},
{"_id":{"$oid":"5715558524390aed5e6d2844"},"coords":{"type":"Point","coordinates":[-71.125031,42.351967]},"neighs":["958","959","960","place-harvd","962","place-babck"],"routes":["57","green-b"],"name":"Packards Corner Station","id":"place-brico","node":"place-brico","rank":1.0272884615057272},
{"_id":{"$oid":"5715558524390aed5e6d2865"},"coords":{"type":"Point","coordinates":[-71.131355,42.350243]},"neighs":["960","964","962","1379","1376","1378","place-brico","place-grigg"],"routes":["57","66","green-b"],"name":"Harvard Avenue Station","id":"place-harvd","node":"place-harvd","rank":1.41549873701355},
{"_id":{"$oid":"5715558524390aed5e6d2861"},"coords":{"type":"Point","coordinates":[-71.134949,42.348545]},"neighs":["place-wrnst","1376","1378","place-harvd","place-alsgr"],"routes":["66","green-b"],"name":"Griggs Street/Long Avenue Station","id":"place-grigg","node":"place-grigg","rank":1.0549113616072827},
{"_id":{"$oid":"5715558524390aed5e6d2833"},"coords":{"type":"Point","coordinates":[-71.137955,42.348701]},"neighs":["967","place-wrnst","place-grigg"],"routes":["57","66","green-b"],"name":"Allston Street Station","id":"place-alsgr","node":"place-alsgr","rank":0.7534461492056296},
{"_id":{"$oid":"5715558524390aed5e6d28a2"},"coords":{"type":"Point","coordinates":[-71.140457,42.348343]},"neighs":["place-grigg","967","place-wascm","place-alsgr"],"routes":["66","57","green-b"],"name":"Warren Street Station","id":"place-wrnst","node":"place-wrnst","rank":1.0073112765256307},
{"_id":{"$oid":"5715558524390aed5e6d289c"},"coords":{"type":"Point","coordinates":[-71.142853,42.343864]},"neighs":["place-sthld","place-wrnst"],"routes":["green-b"],"name":"Washington Street Station","id":"place-wascm","node":"place-wascm","rank":0.5929947365915142},
{"_id":{"$oid":"5715558524390aed5e6d2893"},"coords":{"type":"Point","coordinates":[-71.146202,42.341614]},"neighs":["place-wascm","place-chswk"],"routes":["green-b"],"name":"Sutherland Road Station","id":"place-sthld","node":"place-sthld","rank":0.5308251449346387},
{"_id":{"$oid":"5715558524390aed5e6d2851"},"coords":{"type":"Point","coordinates":[-71.150711,42.340805]},"neighs":["1033","1030","1028","1029","1032","1031","place-sthld","1027","place-chill"],"routes":["86","green-b"],"name":"Chiswick Road Station","id":"place-chswk","node":"place-chswk","rank":1.3383982712693896},
{"_id":{"$oid":"5715558524390aed5e6d284e"},"coords":{"type":"Point","coordinates":[-71.15316,42.338169]},"neighs":["place-rsmnl","place-clmnl","1030","1029","21917","1028","1027","1031","place-chswk","place-sougr"],"routes":["green-d","green-c","86","green-b"],"name":"Chestnut Hill Avenue Station","id":"place-chill","node":"place-chill","rank":1.4511039573171487},
{"_id":{"$oid":"5715558524390aed5e6d288f"},"coords":{"type":"Point","coordinates":[-71.157661,42.3396]},"neighs":["1028","1031","1029","place-chill","1030","place-lake"],"routes":["86","green-b"],"name":"South Street Station","id":"place-sougr","node":"place-sougr","rank":1.0084168313344875},
{"_id":{"$oid":"5715558524390aed5e6d286e"},"coords":{"type":"Point","coordinates":[-71.166769,42.340081]},"neighs":["place-sougr"],"routes":["green-b"],"name":"Boston College Station","id":"place-lake","node":"place-lake","rank":0.29265042224088444},
{"_id":{"$oid":"5715558524390aed5e6d286c"},"coords":{"type":"Point","coordinates":[-71.08617653,42.36249079]},"neighs":["place-cntsq","place-chmnl"],"routes":["red"],"name":"Kendall/MIT Station","id":"place-knncl","node":"place-knncl","rank":0.5153666009348804},
{"_id":{"$oid":"5715558524390aed5e6d2838"},"coords":{"type":"Point","coordinates":[-71.064489,42.284652]},"neighs":["430","334","place-smmnl"],"routes":["23","red"],"name":"Ashmont Station","id":"place-asmnl","node":"place-asmnl","rank":0.9793455690892298},
{"_id":{"$oid":"5715558524390aed5e6d285e"},"coords":{"type":"Point","coordinates":[-71.061667,42.300093]},"neighs":["place-smmnl","place-shmnl"],"routes":["red"],"name":"Fields Corner Station","id":"place-fldcr","node":"place-fldcr","rank":0.6864123730587731},
{"_id":{"$oid":"5715558524390aed5e6d288c"},"coords":{"type":"Point","coordinates":[-71.053331,42.31129]},"neighs":["place-fldcr","place-jfk"],"routes":["red"],"name":"Savin Hill Station","id":"place-shmnl","node":"place-shmnl","rank":0.6661348636855396},
{"_id":{"$oid":"5715558524390aed5e6d286a"},"coords":{"type":"Point","coordinates":[-71.052391,42.320685]},"neighs":["139","138","5203","121","place-andrw","place-nqncy","place-shmnl"],"routes":["16","red"],"name":"JFK/UMass Station","id":"place-jfk","node":"place-jfk","rank":1.8270072961131978},
{"_id":{"$oid":"5715558524390aed5e6d2834"},"coords":{"type":"Point","coordinates":[-71.057655,42.330154]},"neighs":["29051","5201","13","29052","place-jfk","35201","place-brdwy"],"routes":["16","red"],"name":"Andrew Station","id":"place-andrw","node":"place-andrw","rank":1.6049656097367542},
{"_id":{"$oid":"5715558524390aed5e6d2843"},"coords":{"type":"Point","coordinates":[-71.056967,42.342622]},"neighs":["place-andrw","place-sstat"],"routes":["red"],"name":"Broadway Station","id":"place-brdwy","node":"place-brdwy","rank":0.6016572335544712},
{"_id":{"$oid":"5715558524390aed5e6d2891"},"coords":{"type":"Point","coordinates":[-71.055242,42.352271]},"neighs":["place-dwnxg","place-brdwy"],"routes":["red"],"name":"South Station","id":"place-sstat","node":"place-sstat","rank":0.6051424392714683},
{"_id":{"$oid":"5715558524390aed5e6d2858"},"coords":{"type":"Point","coordinates":[-71.060225,42.355518]},"neighs":["place-gover","place-boyls","place-chncl","place-sstat","place-state","place-pktrm"],"routes":["blue","green","red","orange"],"name":"Downtown Crossing Station","id":"place-dwnxg","node":"place-dwnxg","rank":1.409367909509917},
{"_id":{"$oid":"5715558524390aed5e6d284f"},"coords":{"type":"Point","coordinates":[-71.070628,42.361166]},"neighs":["place-knncl","place-pktrm"],"routes":["red"],"name":"Charles/MGH Station","id":"place-chmnl","node":"place-chmnl","rank":0.5661816726079038},
{"_id":{"$oid":"5715558524390aed5e6d288e"},"coords":{"type":"Point","coordinates":[-71.06573796,42.29312583]},"neighs":["426","428","place-fldcr","place-asmnl"],"routes":["23","red"],"name":"Shawmut Station","id":"place-smmnl","node":"place-smmnl","rank":1.1980780539952998},
{"_id":{"$oid":"5715558524390aed5e6d2853"},"coords":{"type":"Point","coordinates":[-71.103802,42.365486]},"neighs":["2441","730","73","101","1058","2442","2443","104","72","102","1060","place-harsq","place-knncl"],"routes":["70","83","1","red"],"name":"Central Square Station","id":"place-cntsq","node":"place-cntsq","rank":1.905045609083879},
{"_id":{"$oid":"5715558524390aed5e6d2864"},"coords":{"type":"Point","coordinates":[-71.118956,42.373362]},"neighs":["2565","110","109","20761","place-cntsq","place-portr"],"routes":["1","86","red"],"name":"Harvard Square Station","id":"place-harsq","node":"place-harsq","rank":1.0920331257246645},
{"_id":{"$oid":"5715558524390aed5e6d2880"},"coords":{"type":"Point","coordinates":[-71.119149,42.3884]},"neighs":["2432","2431","2300","2430","place-davis","2299","place-harsq"],"routes":["83","red"],"name":"Porter Square Station","id":"place-portr","node":"place-portr","rank":1.2325131350231546},
{"_id":{"$oid":"5715558524390aed5e6d2856"},"coords":{"type":"Point","coordinates":[-71.121815,42.39674]},"neighs":["2631","2630","5013","2582","2628","5015","5104","5014","place-alfcl","place-portr"],"routes":["89","red"],"name":"Davis Station","id":"place-davis","node":"place-davis","rank":1.5341444687423758},
{"_id":{"$oid":"5715558524390aed5e6d2832"},"coords":{"type":"Point","coordinates":[-71.142483,42.395428]},"neighs":["2425","place-davis"],"routes":["83","red"],"name":"Alewife Station","id":"place-alfcl","node":"place-alfcl","rank":0.5242723327809725},
{"_id":{"$oid":"5715558524390aed5e6d287a"},"coords":{"type":"Point","coordinates":[-71.029583,42.275275]},"neighs":["place-wlsta","place-jfk"],"routes":["red"],"name":"North Quincy Station","id":"place-nqncy","node":"place-nqncy","rank":0.7667212497149087},
{"_id":{"$oid":"5715558524390aed5e6d289f"},"coords":{"type":"Point","coordinates":[-71.0203369,42.2665139]},"neighs":["place-nqncy","place-qnctr"],"routes":["red"],"name":"Wollaston Station","id":"place-wlsta","node":"place-wlsta","rank":0.8870104490191799},
{"_id":{"$oid":"5715558524390aed5e6d2883"},"coords":{"type":"Point","coordinates":[-71.005409,42.251809]},"neighs":["place-wlsta","place-qamnl"],"routes":["red"],"name":"Quincy Center Station","id":"place-qnctr","node":"place-qnctr","rank":1.0318939551022304},
{"_id":{"$oid":"5715558524390aed5e6d2882"},"coords":{"type":"Point","coordinates":[-71.007153,42.233391]},"neighs":["place-brntn","place-qnctr"],"routes":["red"],"name":"Quincy Adams Station","id":"place-qamnl","node":"place-qamnl","rank":1.0893665322218538},
{"_id":{"$oid":"5715558524390aed5e6d2847"},"coords":{"type":"Point","coordinates":[-71.0011385,42.2078543]},"neighs":["place-qamnl"],"routes":["red"],"name":"Braintree Station","id":"place-brntn","node":"place-brntn","rank":0.6385944127821901},
{"_id":{"$oid":"5715558524390aed5e6d2850"},"coords":{"type":"Point","coordinates":[-71.062752,42.352547]},"neighs":["place-boyls","place-pktrm","place-dwnxg","place-tumnl"],"routes":["red","green","orange"],"name":"Chinatown Station","id":"place-chncl","node":"place-chncl","rank":0.9370612929009089},
{"_id":{"$oid":"5715558524390aed5e6d285f"},"coords":{"type":"Point","coordinates":[-71.113686,42.300523]},"neighs":["1936","520","8750","875","place-grnst"],"routes":["39","16","orange"],"name":"Forest Hills Station","id":"place-forhl","node":"place-forhl","rank":1.3224853027281152},
{"_id":{"$oid":"5715558524390aed5e6d288a"},"coords":{"type":"Point","coordinates":[-71.104248,42.317062]},"neighs":["place-jaksn","place-grnst"],"routes":["orange"],"name":"Stony Brook Station","id":"place-sbmnl","node":"place-sbmnl","rank":0.6675952609420132},
{"_id":{"$oid":"5715558524390aed5e6d2869"},"coords":{"type":"Point","coordinates":[-71.099592,42.323132]},"neighs":["place-sbmnl","place-rcmnl"],"routes":["orange"],"name":"Jackson Square Station","id":"place-jaksn","node":"place-jaksn","rank":0.5612513371230168},
{"_id":{"$oid":"5715558524390aed5e6d2885"},"coords":{"type":"Point","coordinates":[-71.095451,42.331397]},"neighs":["1259","11148","13590","11257","21148","1357","place-rugg","place-jaksn"],"routes":["23","66","orange"],"name":"Roxbury Crossing Station","id":"place-rcmnl","node":"place-rcmnl","rank":1.170231763801429},
{"_id":{"$oid":"5715558524390aed5e6d2888"},"coords":{"type":"Point","coordinates":[-71.088961,42.336377]},"neighs":["81317","17862","place-nuniv","place-rcmnl","place-masta"],"routes":["39","green-e","23","orange"],"name":"Ruggles Station","id":"place-rugg","node":"place-rugg","rank":0.7441800274884468},
{"_id":{"$oid":"5715558524390aed5e6d2872"},"coords":{"type":"Point","coordinates":[-71.083423,42.341512]},"neighs":["place-prmnl","81317","place-nuniv","87","91317","place-symcl","1399","89","188","88","place-bbsta","place-rugg"],"routes":["39","green-e","1","orange"],"name":"Massachusetts Ave. Station","id":"place-masta","node":"place-masta","rank":1.5933452745096244},
{"_id":{"$oid":"5715558524390aed5e6d283a"},"coords":{"type":"Point","coordinates":[-71.075727,42.34735]},"neighs":["175","place-coecl","23391","place-tumnl","143","place-masta"],"routes":["green-e","green","39","orange"],"name":"Back Bay Station","id":"place-bbsta","node":"place-bbsta","rank":1.0997626944838719},
{"_id":{"$oid":"5715558524390aed5e6d289a"},"coords":{"type":"Point","coordinates":[-71.063917,42.349662]},"neighs":["place-boyls","place-chncl","place-bbsta"],"routes":["green","orange"],"name":"Tufts Medical Center Station","id":"place-tumnl","node":"place-tumnl","rank":0.6976477448735401},
{"_id":{"$oid":"5715558524390aed5e6d2862"},"coords":{"type":"Point","coordinates":[-71.107414,42.310525]},"neighs":["place-sbmnl","place-forhl"],"routes":["orange"],"name":"Green St. Station","id":"place-grnst","node":"place-grnst","rank":0.6619435978833621},
{"_id":{"$oid":"5715558524390aed5e6d2892"},"coords":{"type":"Point","coordinates":[-71.057598,42.358978]},"neighs":["place-pktrm","place-bomnl","place-aqucl","place-haecl","place-gover","place-dwnxg"],"routes":["red","orange","green","blue"],"name":"State St. Station","id":"place-state","node":"place-state","rank":1.472785389694338},
{"_id":{"$oid":"5715558524390aed5e6d284c"},"coords":{"type":"Point","coordinates":[-71.069533,42.373622]},"neighs":["place-north","place-sull"],"routes":["orange"],"name":"Community College Station","id":"place-ccmnl","node":"place-ccmnl","rank":0.5436918895646633},
{"_id":{"$oid":"5715558524390aed5e6d2896"},"coords":{"type":"Point","coordinates":[-71.076994,42.383975]},"neighs":["2718","5504","2713","2777","2779","2714","2717","2874","place-ccmnl","place-welln"],"routes":["86","101","89","105","orange"],"name":"Sullivan Station","id":"place-sull","node":"place-sull","rank":1.659912035558815},
{"_id":{"$oid":"5715558524390aed5e6d289d"},"coords":{"type":"Point","coordinates":[-71.077082,42.40237]},"neighs":["place-sull","place-mlmnl"],"routes":["orange"],"name":"Wellington Station","id":"place-welln","node":"place-welln","rank":0.5429429442884706},
{"_id":{"$oid":"5715558524390aed5e6d2875"},"coords":{"type":"Point","coordinates":[-71.07411,42.426632]},"neighs":["53270","5369","place-ogmnl","place-welln"],"routes":["105","orange"],"name":"Malden Center Station","id":"place-mlmnl","node":"place-mlmnl","rank":1.1560823950358001},
{"_id":{"$oid":"5715558524390aed5e6d287c"},"coords":{"type":"Point","coordinates":[-71.071097,42.43668]},"neighs":["place-mlmnl"],"routes":["orange"],"name":"Oak Grove Station","id":"place-ogmnl","node":"place-ogmnl","rank":0.40042812821479},
{"_id":{"$oid":"5715558524390aed5e6d2835"},"coords":{"type":"Point","coordinates":[-71.030395,42.374262]},"neighs":["place-mvbcl","place-wimnl"],"routes":["blue"],"name":"Airport Station","id":"place-aport","node":"place-aport","rank":0.845451338634811},
{"_id":{"$oid":"5715558524390aed5e6d28a0"},"coords":{"type":"Point","coordinates":[-70.991648,42.41342]},"neighs":["15795","4715","place-rbmnl"],"routes":["116","blue"],"name":"Wonderland Station","id":"place-wondl","node":"place-wondl","rank":1.1150744794748069},
{"_id":{"$oid":"5715558524390aed5e6d283f"},"coords":{"type":"Point","coordinates":[-70.99231944,42.39754234]},"neighs":["place-rbmnl","place-sdmnl"],"routes":["blue"],"name":"Beachmont Station","id":"place-bmmnl","node":"place-bmmnl","rank":0.9146053849947162},
{"_id":{"$oid":"5715558524390aed5e6d288b"},"coords":{"type":"Point","coordinates":[-70.99712259,42.39050067]},"neighs":["place-orhte","place-bmmnl"],"routes":["blue"],"name":"Suffolk Downs Station","id":"place-sdmnl","node":"place-sdmnl","rank":0.9364639865968922},
{"_id":{"$oid":"5715558524390aed5e6d287d"},"coords":{"type":"Point","coordinates":[-71.004736,42.386867]},"neighs":["place-wimnl","place-sdmnl"],"routes":["blue"],"name":"Orient Heights Station","id":"place-orhte","node":"place-orhte","rank":0.939387283667555},
{"_id":{"$oid":"5715558524390aed5e6d289e"},"coords":{"type":"Point","coordinates":[-71.02286539,42.3796403]},"neighs":["place-orhte","place-aport"],"routes":["blue"],"name":"Wood Island Station","id":"place-wimnl","node":"place-wimnl","rank":0.9040223520959543},
{"_id":{"$oid":"5715558524390aed5e6d2884"},"coords":{"type":"Point","coordinates":[-70.99253321,42.40784254]},"neighs":["place-wondl","place-bmmnl"],"routes":["blue"],"name":"Revere Beach Station","id":"place-rbmnl","node":"place-rbmnl","rank":0.8555714093386945},
{"_id":{"$oid":"5715558524390aed5e6d2876"},"coords":{"type":"Point","coordinates":[-71.03952958,42.36911856]},"neighs":["5742","5740","place-aport","place-aqucl"],"routes":["116","blue"],"name":"Maverick Station","id":"place-mvbcl","node":"place-mvbcl","rank":1.4328199146769585},
{"_id":{"$oid":"5715558524390aed5e6d2836"},"coords":{"type":"Point","coordinates":[-71.051652,42.359784]},"neighs":["place-mvbcl","place-state"],"routes":["orange","blue"],"name":"Aquarium Station","id":"place-aqucl","node":"place-aqucl","rank":0.6659910271688556},
{"_id":{"$oid":"5715558524390aed5e6d2841"},"coords":{"type":"Point","coordinates":[-71.062037,42.361365]},"neighs":["place-state","place-haecl","place-north","place-gover"],"routes":["orange","green","blue"],"name":"Bowdoin Station","id":"place-bomnl","node":"place-bomnl","rank":1.0341908490444303},
{"_id":{"$oid":"5715558524390aed5e6d27d8"},"neighs":["40001","6","11149","2","11323","399","11259","1148","64000","1"],"coords":{"type":"Point","coordinates":[-71.083885,42.329788]},"routes":["66","23","1"],"name":"Dudley Station","id":"64","node":"64","rank":1.3577165009048222},
{"_id":{"$oid":"5715558524390aed5e6d2665"},"neighs":["11149","11323","399","11259","1148","6","64000","64","2"],"coords":{"type":"Point","coordinates":[-71.082756,42.330956]},"routes":["66","23","1"],"name":"Washington St opp Ruggles St","id":"1","node":"1","rank":1.209770184902895},
{"_id":{"$oid":"5715558524390aed5e6d26d8"},"neighs":["1148","10003","64","64000","6","1"],"coords":{"type":"Point","coordinates":[-71.081253,42.332325]},"routes":["23","66","1"],"name":"Washington St @ Melnea Cass Blvd","id":"2","node":"2","rank":0.9222739192458896},
{"_id":{"$oid":"5715558524390aed5e6d27d1"},"neighs":["64","1","64000","10003","2"],"coords":{"type":"Point","coordinates":[-71.079575,42.332016]},"routes":["23","66","1"],"name":"Melnea Cass Blvd @ Harrison Ave","id":"6","node":"6","rank":0.8058366443079299},
{"_id":{"$oid":"5715558524390aed5e6d2666"},"neighs":["2","58","57","6"],"coords":{"type":"Point","coordinates":[-71.076233,42.331593]},"routes":["1"],"name":"Albany St opp Randall St","id":"10003","node":"10003","rank":0.8415878787998592},
{"_id":{"$oid":"5715558524390aed5e6d27b6"},"neighs":["58","10590","10003"],"coords":{"type":"Point","coordinates":[-71.07354,42.333824]},"routes":["1"],"name":"Massachusetts Ave @ Albany St","id":"57","node":"57","rank":0.7435402886296186},
{"_id":{"$oid":"5715558524390aed5e6d27d0"},"neighs":["10003","10590","57"],"coords":{"type":"Point","coordinates":[-71.074928,42.334949]},"routes":["1"],"name":"Massachusetts Ave @ Harrison Ave","id":"58","node":"58","rank":0.7435402886296186},
{"_id":{"$oid":"5715558524390aed5e6d2686"},"neighs":["57","87","58"],"coords":{"type":"Point","coordinates":[-71.076958,42.33662]},"routes":["1"],"name":"Massachusetts Ave @ Washington St","id":"10590","node":"10590","rank":0.7105780835652417},
{"_id":{"$oid":"5715558524390aed5e6d2805"},"neighs":["89","188","place-masta","88","10590"],"coords":{"type":"Point","coordinates":[-71.08036,42.339458]},"routes":["orange","1"],"name":"Massachusetts Ave @ Tremont St","id":"87","node":"87","rank":0.8064408920189514},
{"_id":{"$oid":"5715558524390aed5e6d2808"},"neighs":["91317","89","place-symcl","place-masta","188","87"],"coords":{"type":"Point","coordinates":[-71.081619,42.340607]},"routes":["39","green-e","orange","1"],"name":"Massachusetts Ave @ Columbus Ave","id":"88","node":"88","rank":0.843462165250046},
{"_id":{"$oid":"5715558524390aed5e6d26d2"},"neighs":["place-prmnl","81317","place-nuniv","87","91317","place-symcl","place-masta","88","1399","89"],"coords":{"type":"Point","coordinates":[-71.083423,42.341512]},"routes":["39","green-e","orange","1"],"name":"Massachusetts Ave @ Massachusetts Ave Station","id":"188","node":"188","rank":1.3125019839640883},
{"_id":{"$oid":"5715558524390aed5e6d2809"},"neighs":["81317","place-prmnl","88","87","91317","place-masta","place-symcl","1399","188","place-nuniv","91"],"coords":{"type":"Point","coordinates":[-71.084122,42.342304]},"routes":["39","orange","green-e","1"],"name":"Massachusetts Ave @ St Botolph St","id":"89","node":"89","rank":1.435872311218062},
{"_id":{"$oid":"5715558524390aed5e6d280b"},"neighs":["91317","place-prmnl","place-symcl","11390","place-hymnl","1399","89","93"],"coords":{"type":"Point","coordinates":[-71.086739,42.345329]},"routes":["green-e","green","39","1"],"name":"Massachusetts Ave @ Clearway St","id":"91","node":"91","rank":1.1561219616708573},
{"_id":{"$oid":"5715558524390aed5e6d2811"},"neighs":["11390","place-hymnl","95","91"],"coords":{"type":"Point","coordinates":[-71.087903,42.347888]},"routes":["39","green","1"],"name":"Massachusetts Ave @ Newbury St","id":"93","node":"93","rank":0.7252614800841911},
{"_id":{"$oid":"5715558524390aed5e6d2812"},"neighs":["11390","place-hymnl","96","93"],"coords":{"type":"Point","coordinates":[-71.089333,42.350773]},"routes":["39","green","1"],"name":"Massachusetts Ave @ Beacon St","id":"95","node":"95","rank":0.785962305308845},
{"_id":{"$oid":"5715558524390aed5e6d2817"},"neighs":["99","97","95"],"coords":{"type":"Point","coordinates":[-71.092735,42.357613]},"routes":["1"],"name":"Massachusetts Ave @ Memorial Dr","id":"96","node":"96","rank":0.6920763234394304},
{"_id":{"$oid":"5715558524390aed5e6d281e"},"neighs":["99","96"],"coords":{"type":"Point","coordinates":[-71.093544,42.359184]},"routes":["1"],"name":"77 Massachusetts Ave","id":"97","node":"97","rank":0.5059803916660583},
{"_id":{"$oid":"5715558524390aed5e6d2830"},"neighs":["96","730","73","101","97"],"coords":{"type":"Point","coordinates":[-71.095718,42.360756]},"routes":["70","1"],"name":"Massachusetts Ave @ Albany St","id":"99","node":"99","rank":0.9377898181016462},
{"_id":{"$oid":"5715558524390aed5e6d2667"},"neighs":["2443","1060","place-cntsq","730","73","72","99","102"],"coords":{"type":"Point","coordinates":[-71.099487,42.362988]},"routes":["83","red","70","1"],"name":"Massachusetts Ave @ Sidney St","id":"101","node":"101","rank":1.164471881805804},
{"_id":{"$oid":"5715558524390aed5e6d2668"},"neighs":["2441","730","73","1058","2442","2443","1060","place-cntsq","101","72","104"],"coords":{"type":"Point","coordinates":[-71.103802,42.365486]},"routes":["70","83","red","1"],"name":"Massachusetts Ave @ Prospect St","id":"102","node":"102","rank":1.5373070258832364},
{"_id":{"$oid":"5715558524390aed5e6d2676"},"neighs":["107","1058","2442","2443","1060","place-cntsq","72","102","106"],"coords":{"type":"Point","coordinates":[-71.106018,42.366837]},"routes":["70","83","red","1"],"name":"Massachusetts Ave @ Bigelow St","id":"104","node":"104","rank":1.3752940995377962},
{"_id":{"$oid":"5715558524390aed5e6d2687"},"neighs":["108","107","104"],"coords":{"type":"Point","coordinates":[-71.10862,42.368389]},"routes":["1"],"name":"Massachusetts Ave @ Hancock St","id":"106","node":"106","rank":0.6452489750273286},
{"_id":{"$oid":"5715558524390aed5e6d2689"},"neighs":["109","104","108","106"],"coords":{"type":"Point","coordinates":[-71.110771,42.369267]},"routes":["1"],"name":"Massachusetts Ave @ Dana St","id":"107","node":"107","rank":0.8200574601804532},
{"_id":{"$oid":"5715558524390aed5e6d268a"},"neighs":["106","109","107"],"coords":{"type":"Point","coordinates":[-71.112999,42.37027]},"routes":["1"],"name":"Massachusetts Ave @ Trowbridge St","id":"108","node":"108","rank":0.6736231748144589},
{"_id":{"$oid":"5715558524390aed5e6d268b"},"neighs":["2565","20761","place-harsq","107","110","108"],"coords":{"type":"Point","coordinates":[-71.115372,42.372101]},"routes":["86","red","1"],"name":"Massachusetts Ave @ Bow St","id":"109","node":"109","rank":1.171950643066749},
{"_id":{"$oid":"5715558524390aed5e6d268c"},"neighs":["2565","20761","2567","place-harsq","109"],"coords":{"type":"Point","coordinates":[-71.118126,42.37326]},"routes":["86","red","1"],"name":"Massachusetts Ave @ Holyoke St","id":"110","node":"110","rank":0.9625555749712543},
{"_id":{"$oid":"5715558524390aed5e6d280d"},"neighs":["9149"],"coords":{"type":"Point","coordinates":[-71.125923,42.427368]},"routes":["101"],"name":"Winthrop St @ Brooks St - Medford HS","id":"9147","node":"9147","rank":0.33552518904780637},
{"_id":{"$oid":"5715558524390aed5e6d280e"},"neighs":["6301","6300","6299","9150","9147"],"coords":{"type":"Point","coordinates":[-71.123085,42.425346]},"routes":["101"],"name":"Winthrop St @ Exeter St","id":"9149","node":"9149","rank":1.0901155862179224},
{"_id":{"$oid":"5715558524390aed5e6d280f"},"neighs":["6301","6300","6298","6299","5008","9149"],"coords":{"type":"Point","coordinates":[-71.120979,42.423721]},"routes":["101"],"name":"Winthrop St @ Suffolk St","id":"9150","node":"9150","rank":1.1857617345082496},
{"_id":{"$oid":"5715558524390aed5e6d2770"},"neighs":["6299","6298","9150"],"coords":{"type":"Point","coordinates":[-71.118233,42.421421]},"routes":["101"],"name":"300 Winthrop St","id":"5008","node":"5008","rank":0.6578012280677181},
{"_id":{"$oid":"5715558524390aed5e6d27d2"},"neighs":["6300","9150","6299","5008"],"coords":{"type":"Point","coordinates":[-71.119896,42.420837]},"routes":["101"],"name":"High St @ Essex St","id":"6298","node":"6298","rank":0.8311836257844859},
{"_id":{"$oid":"5715558524390aed5e6d27d3"},"neighs":["6302","5008","9149","9150","6301","6300","6298"],"coords":{"type":"Point","coordinates":[-71.123215,42.421844]},"routes":["101"],"name":"High St @ Woburn St","id":"6299","node":"6299","rank":1.3421336377411168},
{"_id":{"$oid":"5715558524390aed5e6d27d4"},"neighs":["6298","9149","9150","6302","6301","6299"],"coords":{"type":"Point","coordinates":[-71.124855,42.421768]},"routes":["101"],"name":"High St @ Wolcott St","id":"6300","node":"6300","rank":1.1550009706512816},
{"_id":{"$oid":"5715558524390aed5e6d27d5"},"neighs":["9150","9149","6299","6303","6302","6300"],"coords":{"type":"Point","coordinates":[-71.126236,42.421753]},"routes":["101"],"name":"High St @ Mystic St","id":"6301","node":"6301","rank":1.1318570771654515},
{"_id":{"$oid":"5715558524390aed5e6d27d6"},"neighs":["6299","16304","2371","6300","2370","6303","6301"],"coords":{"type":"Point","coordinates":[-71.128746,42.421547]},"routes":["101"],"name":"High St @ Allston St","id":"6302","node":"6302","rank":1.2467746457915354},
{"_id":{"$oid":"5715558524390aed5e6d27d7"},"neighs":["3513","2371","2369","6301","16304","2370","6302"],"coords":{"type":"Point","coordinates":[-71.131195,42.421104]},"routes":["101"],"name":"High St @ Warren St - W Medford Sq","id":"6303","node":"6303","rank":1.2391409856916358},
{"_id":{"$oid":"5715558524390aed5e6d26cc"},"neighs":["2371","6302","2370","2369","3513","6303"],"coords":{"type":"Point","coordinates":[-71.132973,42.42128]},"routes":["101"],"name":"High St opp Harvard Ave","id":"16304","node":"16304","rank":1.0767613103376596},
{"_id":{"$oid":"5715558524390aed5e6d2750"},"neighs":["6303","2370","2369","16304"],"coords":{"type":"Point","coordinates":[-71.136955,42.421062]},"routes":["101"],"name":"Boston Ave @ High St","id":"3513","node":"3513","rank":0.7612831322253616},
{"_id":{"$oid":"5715558524390aed5e6d26e1"},"neighs":["2371","6303","16304","2370","3513"],"coords":{"type":"Point","coordinates":[-71.134659,42.419785]},"routes":["101"],"name":"Boston Ave @ Harvard St","id":"2369","node":"2369","rank":0.9213406022494585},
{"_id":{"$oid":"5715558524390aed5e6d26e2"},"neighs":["3513","2372","6303","16304","6302","2371","2369"],"coords":{"type":"Point","coordinates":[-71.133102,42.418888]},"routes":["101"],"name":"Boston Ave @ Holton St","id":"2370","node":"2370","rank":1.254837405885052},
{"_id":{"$oid":"5715558524390aed5e6d26e3"},"neighs":["2373","16304","2369","6303","2372","6302","2370"],"coords":{"type":"Point","coordinates":[-71.131531,42.417908]},"routes":["101"],"name":"Boston Ave @ Arlington St","id":"2371","node":"2371","rank":1.276710887424663},
{"_id":{"$oid":"5715558524390aed5e6d26e4"},"neighs":["2370","2374","2373","2371"],"coords":{"type":"Point","coordinates":[-71.129318,42.416435]},"routes":["101"],"name":"Boston Ave @ Mystic Valley Pkwy","id":"2372","node":"2372","rank":0.8369539212874754},
{"_id":{"$oid":"5715558524390aed5e6d26e5"},"neighs":["2375","2371","2374","2372"],"coords":{"type":"Point","coordinates":[-71.127823,42.415455]},"routes":["101"],"name":"Boston Ave @ Stoughton St","id":"2373","node":"2373","rank":0.8751287278504113},
{"_id":{"$oid":"5715558524390aed5e6d26e6"},"neighs":["21411","2372","2375","2373"],"coords":{"type":"Point","coordinates":[-71.125938,42.4142]},"routes":["101"],"name":"Boston Ave @ North St","id":"2374","node":"2374","rank":0.9099104724986545},
{"_id":{"$oid":"5715558524390aed5e6d26e7"},"neighs":["2373","5038","21411","2374"],"coords":{"type":"Point","coordinates":[-71.123932,42.412876]},"routes":["101"],"name":"Boston Ave @ Hillsdale Rd","id":"2375","node":"2375","rank":0.9326267332393581},
{"_id":{"$oid":"5715558524390aed5e6d26dc"},"neighs":["2374","15038","5038","2375"],"coords":{"type":"Point","coordinates":[-71.120445,42.413403]},"routes":["101"],"name":"Winthrop St @ Chester Ave","id":"21411","node":"21411","rank":0.9261998341577783},
{"_id":{"$oid":"5715558524390aed5e6d2775"},"neighs":["2375","15038","21411"],"coords":{"type":"Point","coordinates":[-71.119797,42.414169]},"routes":["101"],"name":"George St @ Winthrop St","id":"5038","node":"5038","rank":0.7241721439429982},
{"_id":{"$oid":"5715558524390aed5e6d26c8"},"neighs":["5040","5291","21411","5039","5038"],"coords":{"type":"Point","coordinates":[-71.116524,42.412849]},"routes":["101"],"name":"George St @ Burget Ave","id":"15038","node":"15038","rank":1.047112409999382},
{"_id":{"$oid":"5715558524390aed5e6d2776"},"neighs":["5293","5292","5291","5040","15038"],"coords":{"type":"Point","coordinates":[-71.113762,42.411724]},"routes":["101"],"name":"George St @ Wedgemere Rd","id":"5039","node":"5039","rank":0.9679263934976755},
{"_id":{"$oid":"5715558524390aed5e6d2777"},"neighs":["15038","5293","5292","5291","5039"],"coords":{"type":"Point","coordinates":[-71.110725,42.41198]},"routes":["101"],"name":"George St @ Main St","id":"5040","node":"5040","rank":0.9679263934976755},
{"_id":{"$oid":"5715558524390aed5e6d2780"},"neighs":["15038","5293","5039","5292","5040"],"coords":{"type":"Point","coordinates":[-71.110641,42.411884]},"routes":["101"],"name":"Main St @ George St","id":"5291","node":"5291","rank":0.9679263934976755},
{"_id":{"$oid":"5715558524390aed5e6d2781"},"neighs":["5295","5039","5294","5040","5293","5291"],"coords":{"type":"Point","coordinates":[-71.110016,42.409809]},"routes":["101"],"name":"Main St @ Stearns Ave","id":"5292","node":"5292","rank":1.1061803989489518},
{"_id":{"$oid":"5715558524390aed5e6d2782"},"neighs":["5039","5296","5291","5295","5040","5294","5292"],"coords":{"type":"Point","coordinates":[-71.109482,42.408646]},"routes":["101"],"name":"Main St @ Windsor Rd","id":"5293","node":"5293","rank":1.2593841628041285},
{"_id":{"$oid":"5715558524390aed5e6d2783"},"neighs":["5297","5296","5292","5295","5293"],"coords":{"type":"Point","coordinates":[-71.108986,42.407532]},"routes":["101"],"name":"Main St @ Wellesley St","id":"5294","node":"5294","rank":0.9071754536892228},
{"_id":{"$oid":"5715558524390aed5e6d2784"},"neighs":["5292","5297","5293","5296","5294"],"coords":{"type":"Point","coordinates":[-71.108536,42.406376]},"routes":["101"],"name":"Main St @ Princeton St","id":"5295","node":"5295","rank":0.9071754536892228},
{"_id":{"$oid":"5715558524390aed5e6d2785"},"neighs":["5293","5298","5294","5297","5295"],"coords":{"type":"Point","coordinates":[-71.108025,42.405182]},"routes":["101"],"name":"Main St @ Harvard St","id":"5296","node":"5296","rank":0.8780370409272847},
{"_id":{"$oid":"5715558524390aed5e6d2786"},"neighs":["5294","5299","5295","5298","5296"],"coords":{"type":"Point","coordinates":[-71.1073,42.403599]},"routes":["101"],"name":"Main St @ Marion St","id":"5297","node":"5297","rank":0.8424737192715832},
{"_id":{"$oid":"5715558524390aed5e6d2787"},"neighs":["2735","5296","2734","5299","5300","5297"],"coords":{"type":"Point","coordinates":[-71.106407,42.402073]},"routes":["89","101"],"name":"Main St @ Medford St","id":"5298","node":"5298","rank":0.8665522949933689},
{"_id":{"$oid":"5715558524390aed5e6d2788"},"neighs":["2732","2733","2735","5297","5300","2734","5298"],"coords":{"type":"Point","coordinates":[-71.104599,42.400703]},"routes":["89","101"],"name":"Main St @ Bow St","id":"5299","node":"5299","rank":0.9180983803044027},
{"_id":{"$oid":"5715558524390aed5e6d2789"},"neighs":["5298","2730","5302","2735","2731","2734","2733","2732","5299","5301"],"coords":{"type":"Point","coordinates":[-71.102196,42.39896]},"routes":["89","101"],"name":"Main St @ Dexter St","id":"5300","node":"5300","rank":1.1489720538187242},
{"_id":{"$oid":"5715558524390aed5e6d278a"},"neighs":["2729","5303","2734","2733","2730","2732","2731","5300","5302"],"coords":{"type":"Point","coordinates":[-71.100182,42.397537]},"routes":["89","101"],"name":"Main St opp Henry St","id":"5301","node":"5301","rank":0.9776647349181494},
{"_id":{"$oid":"5715558524390aed5e6d278b"},"neighs":["2733","5300","2732","2729","2731","2730","2704","5301","2727","5303"],"coords":{"type":"Point","coordinates":[-71.098763,42.396286]},"routes":["89","101"],"name":"Main St opp Moreland St","id":"5302","node":"5302","rank":1.047234593242962},
{"_id":{"$oid":"5715558524390aed5e6d278c"},"neighs":["2725","2705","2732","2726","2731","2730","2729","2727","5302","5301","2704"],"coords":{"type":"Point","coordinates":[-71.097725,42.395077]},"routes":["89","101"],"name":"Main St @ Broadway","id":"5303","node":"5303","rank":1.10705688267564},
{"_id":{"$oid":"5715558524390aed5e6d2714"},"neighs":["5302","2730","2724","2706","2725","2729","2726","2727","5303","2705"],"coords":{"type":"Point","coordinates":[-71.095924,42.393791]},"routes":["89","101"],"name":"Broadway @ Thurston St","id":"2704","node":"2704","rank":0.999569925238233},
{"_id":{"$oid":"5715558524390aed5e6d2715"},"neighs":["2729","2707","2723","5303","2727","2726","2725","2704","2724","2706"],"coords":{"type":"Point","coordinates":[-71.093552,42.392555]},"routes":["89","101"],"name":"Broadway opp Temple St","id":"2705","node":"2705","rank":0.9901919880025853},
{"_id":{"$oid":"5715558524390aed5e6d2716"},"neighs":["2729","2727","2708","2704","2723","2726","2725","2724","2705","2707"],"coords":{"type":"Point","coordinates":[-71.092804,42.392159]},"routes":["89","101"],"name":"Broadway @ Marshall St","id":"2706","node":"2706","rank":0.9897428272492644},
{"_id":{"$oid":"5715558524390aed5e6d2717"},"neighs":["2726","2710","2705","2725","2721","2722","2709","2723","2724","2706","2708"],"coords":{"type":"Point","coordinates":[-71.090263,42.390499]},"routes":["89","101"],"name":"Broadway @ Montgomery Ave","id":"2707","node":"2707","rank":1.0866527988734884},
{"_id":{"$oid":"5715558524390aed5e6d2718"},"neighs":["2725","2711","2706","2724","2710","2720","2723","2721","2722","2707","2709"],"coords":{"type":"Point","coordinates":[-71.088631,42.389744]},"routes":["89","101"],"name":"Broadway @ McGrath Hwy","id":"2708","node":"2708","rank":1.1003542712280168},
{"_id":{"$oid":"5715558524390aed5e6d2719"},"neighs":["2719","2724","2711","2720","2723","2707","2721","2722","2708","2710"],"coords":{"type":"Point","coordinates":[-71.087677,42.389317]},"routes":["89","101"],"name":"Broadway St @ MacArthur St","id":"2709","node":"2709","rank":1.0253165060820346},
{"_id":{"$oid":"5715558524390aed5e6d271a"},"neighs":["2707","2712","2718","2719","2708","2723","2720","2722","2721","2709","2711"],"coords":{"type":"Point","coordinates":[-71.086105,42.388615]},"routes":["89","101"],"name":"Broadway @ Cross St","id":"2710","node":"2710","rank":1.1397262677001243},
{"_id":{"$oid":"5715558524390aed5e6d271b"},"neighs":["2708","2713","2709","2718","2719","2722","2721","2720","2710","2712"],"coords":{"type":"Point","coordinates":[-71.084328,42.387798]},"routes":["89","101"],"name":"Broadway @ Glen St","id":"2711","node":"2711","rank":1.0739957428507356},
{"_id":{"$oid":"5715558524390aed5e6d271c"},"neighs":["2710","2722","2721","2720","2718","2719","2714","2711","2713"],"coords":{"type":"Point","coordinates":[-71.082176,42.387062]},"routes":["89","101"],"name":"Broadway @ Franklin St","id":"2712","node":"2712","rank":1.014927944350652},
{"_id":{"$oid":"5715558524390aed5e6d271d"},"neighs":["2721","2874","place-sull","2720","2719","2718","2712","2717","2711","2714"],"coords":{"type":"Point","coordinates":[-71.080643,42.386631]},"routes":["86","105","orange","89","101"],"name":"Broadway @ Lincoln St","id":"2713","node":"2713","rank":1.233293075746011},
{"_id":{"$oid":"5715558524390aed5e6d271e"},"neighs":["2777","2779","2712","place-sull","2719","2718","2717","2713","2874"],"coords":{"type":"Point","coordinates":[-71.078667,42.386047]},"routes":["105","86","orange","89","101"],"name":"Broadway @ Mt Vernon St","id":"2714","node":"2714","rank":1.2381968697237737},
{"_id":{"$oid":"5715558524390aed5e6d273c"},"neighs":["2718","5504","2713","2777","2779","place-sull","2717","2714"],"coords":{"type":"Point","coordinates":[-71.076994,42.383975]},"routes":["86","89","105","orange","101"],"name":"Sullivan Station - Upper Busway","id":"2874","node":"2874","rank":1.2117399097208754},
{"_id":{"$oid":"5715558524390aed5e6d27ad"},"neighs":["place-sull","2717","5505","2874"],"coords":{"type":"Point","coordinates":[-71.072456,42.386021]},"routes":["86","101","orange","89","105"],"name":"Alford St @ Main St","id":"5504","node":"5504","rank":0.8224036230838732},
{"_id":{"$oid":"5715558524390aed5e6d27ae"},"neighs":["5506","5504"],"coords":{"type":"Point","coordinates":[-71.068779,42.392326]},"routes":["105"],"name":"173 Alford St","id":"5505","node":"5505","rank":0.6308523415284814},
{"_id":{"$oid":"5715558524390aed5e6d27af"},"neighs":["5507","5505"],"coords":{"type":"Point","coordinates":[-71.067207,42.394295]},"routes":["105"],"name":"Broadway @ Dexter St","id":"5506","node":"5506","rank":0.7147325143752516},
{"_id":{"$oid":"5715558524390aed5e6d27b0"},"neighs":["5509","5508","5506"],"coords":{"type":"Point","coordinates":[-71.06498,42.396816]},"routes":["105"],"name":"Broadway @ Thorndike St","id":"5507","node":"5507","rank":1.032606927393517},
{"_id":{"$oid":"5715558524390aed5e6d27b1"},"neighs":["5509","5507"],"coords":{"type":"Point","coordinates":[-71.063011,42.398888]},"routes":["105"],"name":"Broadway @ Langdon St","id":"5508","node":"5508","rank":0.716087379244141},
{"_id":{"$oid":"5715558524390aed5e6d27b2"},"neighs":["5507","5405","5508"],"coords":{"type":"Point","coordinates":[-71.0616,42.400398]},"routes":["105"],"name":"Broadway St @ Bartlett St","id":"5509","node":"5509","rank":0.9541884206403236},
{"_id":{"$oid":"5715558524390aed5e6d2792"},"neighs":["5407","45406","5406","5509"],"coords":{"type":"Point","coordinates":[-71.061264,42.404144]},"routes":["105"],"name":"Main St @ Elmwood St","id":"5405","node":"5405","rank":0.9585085819086433},
{"_id":{"$oid":"5715558524390aed5e6d2793"},"neighs":["5408","5407","45406","5405"],"coords":{"type":"Point","coordinates":[-71.061424,42.405094]},"routes":["105"],"name":"Main St @ Oakes St","id":"5406","node":"5406","rank":0.8793693953084009},
{"_id":{"$oid":"5715558524390aed5e6d2763"},"neighs":["5405","5409","5408","5410","5407","5406"],"coords":{"type":"Point","coordinates":[-71.062035,42.407089]},"routes":["105"],"name":"Main St @ Winthrop St","id":"45406","node":"45406","rank":1.2365157286766724},
{"_id":{"$oid":"5715558524390aed5e6d2794"},"neighs":["5405","5406","5409","5408","5410","45406"],"coords":{"type":"Point","coordinates":[-71.062073,42.407684]},"routes":["105"],"name":"Main St @ Forest Ave","id":"5407","node":"5407","rank":1.2365157286766724},
{"_id":{"$oid":"5715558524390aed5e6d2795"},"neighs":["5406","5410","45406","5409","5407"],"coords":{"type":"Point","coordinates":[-71.062241,42.40905]},"routes":["105"],"name":"Main St @ Baldwin Ave","id":"5408","node":"5408","rank":1.032350118871963},
{"_id":{"$oid":"5715558524390aed5e6d2796"},"neighs":["5411","5407","45406","5410","5408"],"coords":{"type":"Point","coordinates":[-71.062416,42.410248]},"routes":["105"],"name":"Main St @ Clark St","id":"5409","node":"5409","rank":1.0263809681813412},
{"_id":{"$oid":"5715558524390aed5e6d2797"},"neighs":["5412","45406","5407","5411","5408","5409"],"coords":{"type":"Point","coordinates":[-71.06279,42.411381]},"routes":["105"],"name":"Main St @ Dyer Ave","id":"5410","node":"5410","rank":1.2085677416216876},
{"_id":{"$oid":"5715558524390aed5e6d2798"},"neighs":["5413","5409","5412","5410"],"coords":{"type":"Point","coordinates":[-71.063484,42.413498]},"routes":["105"],"name":"Main St @ Bradford St","id":"5411","node":"5411","rank":0.8463600918827718},
{"_id":{"$oid":"5715558524390aed5e6d2799"},"neighs":["5414","5410","5413","5411"],"coords":{"type":"Point","coordinates":[-71.064163,42.414814]},"routes":["105"],"name":"Main St @ Bellingham Ave","id":"5412","node":"5412","rank":0.8419175052788181},
{"_id":{"$oid":"5715558524390aed5e6d279a"},"neighs":["5416","5411","5415","5414","5412"],"coords":{"type":"Point","coordinates":[-71.065277,42.416908]},"routes":["105"],"name":"Main St @ Clarendon St","id":"5413","node":"5413","rank":1.0110162644566103},
{"_id":{"$oid":"5715558524390aed5e6d279b"},"neighs":["5417","5412","5416","5415","5413"],"coords":{"type":"Point","coordinates":[-71.065338,42.418633]},"routes":["105"],"name":"Cross St @ Main St","id":"5414","node":"5414","rank":0.9933307189702018},
{"_id":{"$oid":"5715558524390aed5e6d279c"},"neighs":["5413","5417","5418","5416","5414"],"coords":{"type":"Point","coordinates":[-71.063049,42.419323]},"routes":["105"],"name":"Cross St @ Stevens St","id":"5415","node":"5415","rank":0.9791071640779254},
{"_id":{"$oid":"5715558524390aed5e6d279d"},"neighs":["5413","5414","5417","5418","5415"],"coords":{"type":"Point","coordinates":[-71.061272,42.420124]},"routes":["105"],"name":"Cross St @ Pratt St","id":"5416","node":"5416","rank":0.9791071640779254},
{"_id":{"$oid":"5715558524390aed5e6d279e"},"neighs":["5414","5419","5415","5418","5416"],"coords":{"type":"Point","coordinates":[-71.060043,42.420746]},"routes":["105"],"name":"Cross St @ Walnut St","id":"5417","node":"5417","rank":0.9354907387177789},
{"_id":{"$oid":"5715558524390aed5e6d279f"},"neighs":["5416","5415","5419","5417"],"coords":{"type":"Point","coordinates":[-71.058533,42.421795]},"routes":["105"],"name":"Cross St @ Ferry St","id":"5418","node":"5418","rank":0.7633131146701273},
{"_id":{"$oid":"5715558524390aed5e6d27a0"},"neighs":["5429","5430","5417","5428","5422","45428","5421","5427","5418","5420"],"coords":{"type":"Point","coordinates":[-71.056107,42.423737]},"routes":["105"],"name":"Cross St @ Henry St","id":"5419","node":"5419","rank":1.4238376962483676},
{"_id":{"$oid":"5715558524390aed5e6d27a1"},"neighs":["5429","5423","5425","5422","45428","5426","5428","5427","5419","5421"],"coords":{"type":"Point","coordinates":[-71.053688,42.424915]},"routes":["105"],"name":"Opp 314 Bryant St @ Suffolk Manor","id":"5420","node":"5420","rank":1.3392411111428486},
{"_id":{"$oid":"5715558524390aed5e6d27a2"},"neighs":["5424","5426","5428","5425","5423","5419","5427","5420","45428","5422"],"coords":{"type":"Point","coordinates":[-71.052559,42.424061]},"routes":["105"],"name":"Bryant St @ Harvard St","id":"5421","node":"5421","rank":1.3540009677677411},
{"_id":{"$oid":"5715558524390aed5e6d27a3"},"neighs":["5425","5419","5420","5424","5423","5421"],"coords":{"type":"Point","coordinates":[-71.050697,42.422974]},"routes":["105"],"name":"Newland St @ Bryant St","id":"5422","node":"5422","rank":0.8810469567594801},
{"_id":{"$oid":"5715558524390aed5e6d27a4"},"neighs":["5420","5421","5425","5424","5422"],"coords":{"type":"Point","coordinates":[-71.047966,42.424026]},"routes":["105"],"name":"218 Newland St","id":"5423","node":"5423","rank":0.756371804574265},
{"_id":{"$oid":"5715558524390aed5e6d27a5"},"neighs":["5421","5422","5425","5423"],"coords":{"type":"Point","coordinates":[-71.047188,42.424946]},"routes":["105"],"name":"172 Bowdoin St","id":"5424","node":"5424","rank":0.6361136167027356},
{"_id":{"$oid":"5715558524390aed5e6d27a6"},"neighs":["5422","5421","5420","5427","5423","5424","5428","5426"],"coords":{"type":"Point","coordinates":[-71.049416,42.426571]},"routes":["105"],"name":"Bowdoin St opp Harvard St","id":"5425","node":"5425","rank":1.1133250532422074},
{"_id":{"$oid":"5715558524390aed5e6d27a7"},"neighs":["5429","5421","5420","45428","5428","5427","5425"],"coords":{"type":"Point","coordinates":[-71.051514,42.428146]},"routes":["105"],"name":"Bowdoin St @ Willow St","id":"5426","node":"5426","rank":0.9622540333253536},
{"_id":{"$oid":"5715558524390aed5e6d27a8"},"neighs":["5419","5429","5421","5425","45428","5420","5426","5428"],"coords":{"type":"Point","coordinates":[-71.052849,42.427341]},"routes":["105"],"name":"Willow St @ Lyme St","id":"5427","node":"5427","rank":1.0847517151082315},
{"_id":{"$oid":"5715558524390aed5e6d27a9"},"neighs":["5425","5419","5430","5421","5429","5426","5420","5427","45428"],"coords":{"type":"Point","coordinates":[-71.054703,42.427551]},"routes":["105"],"name":"Lyme St @ Cross St","id":"5428","node":"5428","rank":1.2184971674381324},
{"_id":{"$oid":"5715558524390aed5e6d2764"},"neighs":["5421","5419","5430","5420","5427","5426","5428","5429"],"coords":{"type":"Point","coordinates":[-71.055717,42.42728]},"routes":["105"],"name":"Lyme St @ Bryant St","id":"45428","node":"45428","rank":1.0987194227388986},
{"_id":{"$oid":"5715558524390aed5e6d27aa"},"neighs":["5426","5419","5420","5427","5428","5430","45428"],"coords":{"type":"Point","coordinates":[-71.057434,42.427994]},"routes":["105"],"name":"420 Eastern Ave","id":"5429","node":"5429","rank":0.9813697441518375},
{"_id":{"$oid":"5715558524390aed5e6d27ab"},"neighs":["5419","5428","45428","5431","5429"],"coords":{"type":"Point","coordinates":[-71.059937,42.426842]},"routes":["105"],"name":"Eastern Ave @ Franklin St","id":"5430","node":"5430","rank":0.7865116031378682},
{"_id":{"$oid":"5715558524390aed5e6d27ac"},"neighs":["5366","9215","5342","5365","5430"],"coords":{"type":"Point","coordinates":[-71.063652,42.425026]},"routes":["105"],"name":"Eastern Ave @ Phillips Ct","id":"5431","node":"5431","rank":0.9717317375768544},
{"_id":{"$oid":"5715558524390aed5e6d278f"},"neighs":["9215","5342","5366","5431"],"coords":{"type":"Point","coordinates":[-71.067215,42.423386]},"routes":["105"],"name":"Eastern Ave @ Main St","id":"5365","node":"5365","rank":0.8274931023663582},
{"_id":{"$oid":"5715558524390aed5e6d2790"},"neighs":["5369","5431","19215","9215","5342","5365"],"coords":{"type":"Point","coordinates":[-71.06768,42.425098]},"routes":["105"],"name":"Main St @ Centre St","id":"5366","node":"5366","rank":1.2044396726829434},
{"_id":{"$oid":"5715558524390aed5e6d278e"},"neighs":["5369","5431","5365","9215","19215","5366"],"coords":{"type":"Point","coordinates":[-71.067352,42.426167]},"routes":["105"],"name":"Main St opp Pleasant St","id":"5342","node":"5342","rank":1.2044396726829434},
{"_id":{"$oid":"5715558524390aed5e6d2810"},"neighs":["5365","5431","5369","5366","19215","5342"],"coords":{"type":"Point","coordinates":[-71.066963,42.427578]},"routes":["105"],"name":"Main St @ Salem St","id":"9215","node":"9215","rank":1.2044396726829434},
{"_id":{"$oid":"5715558524390aed5e6d26d3"},"neighs":["5366","5369","5342","9215"],"coords":{"type":"Point","coordinates":[-71.067963,42.42868]},"routes":["105"],"name":"Florence St @ Ramsdell Rd","id":"19215","node":"19215","rank":0.8528402447825512},
{"_id":{"$oid":"5715558524390aed5e6d2791"},"neighs":["5342","9215","place-mlmnl","53270","5366","19215"],"coords":{"type":"Point","coordinates":[-71.071159,42.42865]},"routes":["orange","105"],"name":"Florence St @ Washington St","id":"5369","node":"5369","rank":1.3440493683268626},
{"_id":{"$oid":"5715558524390aed5e6d278d"},"neighs":["place-mlmnl","5369"],"coords":{"type":"Point","coordinates":[-71.07411,42.426632]},"routes":["orange","105"],"name":"Malden Ctr Sta East Busway Bay","id":"53270","node":"53270","rank":0.5909089081888076},
{"_id":{"$oid":"5715558524390aed5e6d27b7"},"neighs":["place-mvbcl","5742"],"coords":{"type":"Point","coordinates":[-71.03952958,42.36911856]},"routes":["blue","116"],"name":"Maverick Station","id":"5740","node":"5740","rank":0.7733564399766959},
{"_id":{"$oid":"5715558524390aed5e6d27b8"},"neighs":["place-mvbcl","5743","5740"],"coords":{"type":"Point","coordinates":[-71.038956,42.372501]},"routes":["blue","116"],"name":"Meridian St @ Havre St","id":"5742","node":"5742","rank":1.1152457046902184},
{"_id":{"$oid":"5715558524390aed5e6d27b9"},"neighs":["5745","5742"],"coords":{"type":"Point","coordinates":[-71.039032,42.37571]},"routes":["116"],"name":"Meridian St @ Saratoga St","id":"5743","node":"5743","rank":0.7783057304097362},
{"_id":{"$oid":"5715558524390aed5e6d27ba"},"neighs":["5747","5746","5743"],"coords":{"type":"Point","coordinates":[-71.039108,42.378765]},"routes":["116"],"name":"Meridian St @ Eutaw St","id":"5745","node":"5745","rank":1.0954738189873328},
{"_id":{"$oid":"5715558524390aed5e6d27bb"},"neighs":["5747","5745"],"coords":{"type":"Point","coordinates":[-71.039185,42.380444]},"routes":["116"],"name":"Meridian St @ White St","id":"5746","node":"5746","rank":0.7550770276216862},
{"_id":{"$oid":"5715558524390aed5e6d27bc"},"neighs":["5745","5748","5746"],"coords":{"type":"Point","coordinates":[-71.039185,42.38208]},"routes":["116"],"name":"Meridian St @ Falcon St","id":"5747","node":"5747","rank":1.0337651291801837},
{"_id":{"$oid":"5715558524390aed5e6d27bd"},"neighs":["5614","5749","5747"],"coords":{"type":"Point","coordinates":[-71.038574,42.387939]},"routes":["116"],"name":"Pearl St @ Marginal St","id":"5748","node":"5748","rank":0.8838501072624736},
{"_id":{"$oid":"5715558524390aed5e6d27be"},"neighs":["5615","5614","5748"],"coords":{"type":"Point","coordinates":[-71.037621,42.389439]},"routes":["116"],"name":"Pearl St @ Essex St","id":"5749","node":"5749","rank":0.803863603438436},
{"_id":{"$oid":"5715558524390aed5e6d27b3"},"neighs":["5748","5615","5617","5749"],"coords":{"type":"Point","coordinates":[-71.035553,42.390263]},"routes":["116"],"name":"Park St @ Hawthorne St","id":"5614","node":"5614","rank":1.001341595719287},
{"_id":{"$oid":"5715558524390aed5e6d27b4"},"neighs":["5750","5749","5617","5751","5614"],"coords":{"type":"Point","coordinates":[-71.034126,42.392517]},"routes":["116"],"name":"Hawthorne St @ Broadway","id":"5615","node":"5615","rank":1.1210590998088565},
{"_id":{"$oid":"5715558524390aed5e6d27b5"},"neighs":["35751","5750","5614","5751","5615"],"coords":{"type":"Point","coordinates":[-71.032967,42.393368]},"routes":["116"],"name":"Broadway @ Shurtleff St","id":"5617","node":"5617","rank":1.0748630781481212},
{"_id":{"$oid":"5715558524390aed5e6d27bf"},"neighs":["35751","5615","5751","5752","5617"],"coords":{"type":"Point","coordinates":[-71.031113,42.394394]},"routes":["116"],"name":"Broadway @ Gerrish Ave","id":"5750","node":"5750","rank":1.0388967062294676},
{"_id":{"$oid":"5715558524390aed5e6d27c0"},"neighs":["5753","5617","5752","5615","35751","5750"],"coords":{"type":"Point","coordinates":[-71.029701,42.395195]},"routes":["116"],"name":"Broadway @ Crescent Ave","id":"5751","node":"5751","rank":1.215474027473005},
{"_id":{"$oid":"5715558524390aed5e6d2752"},"neighs":["5753","5750","5617","5752","5751"],"coords":{"type":"Point","coordinates":[-71.028557,42.395844]},"routes":["116"],"name":"Broadway @ Cary Ave","id":"35751","node":"35751","rank":1.023329300596163},
{"_id":{"$oid":"5715558524390aed5e6d27c1"},"neighs":["5755","5750","5754","5751","5753","35751"],"coords":{"type":"Point","coordinates":[-71.026978,42.396748]},"routes":["116"],"name":"Broadway @ Parker St","id":"5752","node":"5752","rank":1.2065403039714042},
{"_id":{"$oid":"5715558524390aed5e6d27c2"},"neighs":["5756","5751","35751","5755","5754","5752"],"coords":{"type":"Point","coordinates":[-71.025368,42.397644]},"routes":["116"],"name":"Broadway @ Eleanor St","id":"5753","node":"5753","rank":1.2175613792079645},
{"_id":{"$oid":"5715558524390aed5e6d27c3"},"neighs":["5752","5757","5756","5755","5753"],"coords":{"type":"Point","coordinates":[-71.023636,42.398643]},"routes":["116"],"name":"Broadway @ Green St","id":"5754","node":"5754","rank":1.0680562891644598},
{"_id":{"$oid":"5715558524390aed5e6d27c4"},"neighs":["5752","5753","5757","5756","5754"],"coords":{"type":"Point","coordinates":[-71.022392,42.399559]},"routes":["116"],"name":"Broadway @ Webster Ave","id":"5755","node":"5755","rank":1.0680562891644598},
{"_id":{"$oid":"5715558524390aed5e6d27c5"},"neighs":["5753","5754","5757","5755"],"coords":{"type":"Point","coordinates":[-71.021095,42.4007]},"routes":["116"],"name":"Broadway @ Stockton St","id":"5756","node":"5756","rank":0.8899148534472466},
{"_id":{"$oid":"5715558524390aed5e6d27c6"},"neighs":["5754","5755","5759","5756"],"coords":{"type":"Point","coordinates":[-71.019775,42.401855]},"routes":["116"],"name":"Broadway @ Cabot St","id":"5757","node":"5757","rank":0.9656917403492373},
{"_id":{"$oid":"5715558524390aed5e6d27c7"},"neighs":["5761","5760","5757"],"coords":{"type":"Point","coordinates":[-71.016174,42.40498]},"routes":["116"],"name":"Broadway @ Taft St","id":"5759","node":"5759","rank":0.9305061753344591},
{"_id":{"$oid":"5715558524390aed5e6d27c8"},"neighs":["5761","5759"],"coords":{"type":"Point","coordinates":[-71.014572,42.406376]},"routes":["116"],"name":"Broadway @ Herman St","id":"5760","node":"5760","rank":0.6939596289257615},
{"_id":{"$oid":"5715558524390aed5e6d27c9"},"neighs":["5759","5763","5760"],"coords":{"type":"Point","coordinates":[-71.01329,42.408443]},"routes":["116"],"name":"Broadway @ Pleasant St","id":"5761","node":"5761","rank":0.9856195187266613},
{"_id":{"$oid":"5715558524390aed5e6d27ca"},"neighs":["35765","5765","5761"],"coords":{"type":"Point","coordinates":[-71.011627,42.411045]},"routes":["116"],"name":"Broadway opp Fernwood Ave","id":"5763","node":"5763","rank":0.9718234763584817},
{"_id":{"$oid":"5715558524390aed5e6d27cb"},"neighs":["5768","35765","5763"],"coords":{"type":"Point","coordinates":[-71.009979,42.413555]},"routes":["116"],"name":"Broadway opp Elmwood Ave","id":"5765","node":"5765","rank":0.9563718791158218},
{"_id":{"$oid":"5715558524390aed5e6d2753"},"neighs":["5763","5768","5765"],"coords":{"type":"Point","coordinates":[-71.009178,42.414841]},"routes":["116"],"name":"Broadway @ True St","id":"35765","node":"35765","rank":0.9563718791158218},
{"_id":{"$oid":"5715558524390aed5e6d27cc"},"neighs":["5765","5771","5770","35765"],"coords":{"type":"Point","coordinates":[-71.005722,42.416595]},"routes":["116"],"name":"Revere St @ Lee St","id":"5768","node":"5768","rank":1.2207006213870737},
{"_id":{"$oid":"5715558524390aed5e6d27cd"},"neighs":["35772","5771","5768"],"coords":{"type":"Point","coordinates":[-71.001755,42.416454]},"routes":["116"],"name":"Revere St @ Stowers St","id":"5770","node":"5770","rank":0.9342389843077069},
{"_id":{"$oid":"5715558524390aed5e6d27ce"},"neighs":["5768","35772","5770"],"coords":{"type":"Point","coordinates":[-71.000587,42.417465]},"routes":["116"],"name":"235 Revere St opp Breed St","id":"5771","node":"5771","rank":0.9342389843077069},
{"_id":{"$oid":"5715558524390aed5e6d2754"},"neighs":["5774","5770","35773","5771"],"coords":{"type":"Point","coordinates":[-70.997658,42.418438]},"routes":["116"],"name":"Revere St @ Hawes St","id":"35772","node":"35772","rank":1.2258871585953417},
{"_id":{"$oid":"5715558524390aed5e6d2755"},"neighs":["4715","5774","35772"],"coords":{"type":"Point","coordinates":[-70.994629,42.418533]},"routes":["116"],"name":"Revere St @ Michael Della Russo Way","id":"35773","node":"35773","rank":0.9670107556991945},
{"_id":{"$oid":"5715558524390aed5e6d27cf"},"neighs":["35772","4715","35773"],"coords":{"type":"Point","coordinates":[-70.992722,42.418575]},"routes":["116"],"name":"Revere St @ Sagamore St","id":"5774","node":"5774","rank":0.9670107556991945},
{"_id":{"$oid":"5715558524390aed5e6d2767"},"neighs":["place-wondl","35773","15795","5774"],"coords":{"type":"Point","coordinates":[-70.991142,42.417034]},"routes":["blue","116"],"name":"N Shore Rd @ Agawam St","id":"4715","node":"4715","rank":1.3318518557388714},
{"_id":{"$oid":"5715558524390aed5e6d26ca"},"neighs":["place-wondl","4715"],"coords":{"type":"Point","coordinates":[-70.991648,42.41342]},"routes":["blue","116"],"name":"Wonderland West Busway","id":"15795","node":"15795","rank":0.749458929141186},
{"_id":{"$oid":"5715558524390aed5e6d2806"},"neighs":["1936","8750","place-forhl","520"],"coords":{"type":"Point","coordinates":[-71.113686,42.300523]},"routes":["39","orange","16"],"name":"Forest Hills Station Lower Busway","id":"875","node":"875","rank":1.045713108166884},
{"_id":{"$oid":"5715558524390aed5e6d277a"},"neighs":["1936","8750","521","place-forhl","875"],"coords":{"type":"Point","coordinates":[-71.11171,42.301151]},"routes":["39","orange","16"],"name":"Arborway @ Washington St","id":"520","node":"520","rank":1.3285660123348868},
{"_id":{"$oid":"5715558524390aed5e6d277e"},"neighs":["522","520"],"coords":{"type":"Point","coordinates":[-71.107368,42.300564]},"routes":["16"],"name":"Arborway @ Shea Circle","id":"521","node":"521","rank":0.6777487847424174},
{"_id":{"$oid":"5715558524390aed5e6d277f"},"neighs":["10522","521"],"coords":{"type":"Point","coordinates":[-71.102356,42.300781]},"routes":["16"],"name":"Circuit Dr @ Shattuck Hospital","id":"522","node":"522","rank":0.703364800653899},
{"_id":{"$oid":"5715558524390aed5e6d2681"},"neighs":["2922","522"],"coords":{"type":"Point","coordinates":[-71.094681,42.305103]},"routes":["16"],"name":"Circuit Dr @ Glen Ln","id":"10522","node":"10522","rank":0.6289680884149129},
{"_id":{"$oid":"5715558524390aed5e6d2741"},"neighs":["2924","2904","2923","10522"],"coords":{"type":"Point","coordinates":[-71.08667,42.301807]},"routes":["16"],"name":"Glen Ln @ Blue Hill Ave - Franklin Park Zoo","id":"2922","node":"2922","rank":0.8327809648889337},
{"_id":{"$oid":"5715558524390aed5e6d2742"},"neighs":["2925","472","2924","2904","468","2922"],"coords":{"type":"Point","coordinates":[-71.084648,42.302692]},"routes":["23","16"],"name":"Old Rd @ Ellington St","id":"2923","node":"2923","rank":1.00471457697126},
{"_id":{"$oid":"5715558524390aed5e6d273d"},"neighs":["472","2925","475","468","2922","2924","2923"],"coords":{"type":"Point","coordinates":[-71.083527,42.303375]},"routes":["23","16"],"name":"Columbia Rd. @ Wolcott","id":"2904","node":"2904","rank":1.1498134003028797},
{"_id":{"$oid":"5715558524390aed5e6d2743"},"neighs":["471","475","472","468","2926","2923","2904","2922","2925"],"coords":{"type":"Point","coordinates":[-71.082123,42.304184]},"routes":["23","16"],"name":"Columbia Rd @ Seaver St","id":"2924","node":"2924","rank":1.437414073426433},
{"_id":{"$oid":"5715558524390aed5e6d2744"},"neighs":["2928","2904","471","475","472","468","2923","2924","2926"],"coords":{"type":"Point","coordinates":[-71.080254,42.305401]},"routes":["23","16"],"name":"Columbia Rd @ Washington St","id":"2925","node":"2925","rank":1.4170706144143217},
{"_id":{"$oid":"5715558524390aed5e6d2745"},"neighs":["2929","471","475","472","468","2924","2925","2928"],"coords":{"type":"Point","coordinates":[-71.078041,42.306049]},"routes":["23","16"],"name":"Columbia Rd @ Geneva Ave","id":"2926","node":"2926","rank":1.3054603354847767},
{"_id":{"$oid":"5715558524390aed5e6d2746"},"neighs":["468","2930","2925","2929","2926"],"coords":{"type":"Point","coordinates":[-71.07576,42.307552]},"routes":["23","16"],"name":"Columbia Rd @ Devon St","id":"2928","node":"2928","rank":0.9147574501873548},
{"_id":{"$oid":"5715558524390aed5e6d2747"},"neighs":["2931","2926","2930","2928"],"coords":{"type":"Point","coordinates":[-71.07373,42.309063]},"routes":["16"],"name":"Columbia Rd @ Intervale St","id":"2929","node":"2929","rank":0.8211653153514948},
{"_id":{"$oid":"5715558524390aed5e6d2748"},"neighs":["2932","2928","2931","2929"],"coords":{"type":"Point","coordinates":[-71.072044,42.310127]},"routes":["16"],"name":"Columbia Rd @ Hamilton St","id":"2930","node":"2930","rank":0.8697002373936863},
{"_id":{"$oid":"5715558524390aed5e6d2749"},"neighs":["12932","2929","2932","2930"],"coords":{"type":"Point","coordinates":[-71.070076,42.31118]},"routes":["16"],"name":"Columbia Rd @ Quincy St","id":"2931","node":"2931","rank":0.9059811187108494},
{"_id":{"$oid":"5715558524390aed5e6d274a"},"neighs":["2930","1480","12932","2931"],"coords":{"type":"Point","coordinates":[-71.068184,42.312836]},"routes":["16"],"name":"Columbia Rd @ Glendale St","id":"2932","node":"2932","rank":0.9277937150643922},
{"_id":{"$oid":"5715558524390aed5e6d26a3"},"neighs":["2931","2933","1480","2932"],"coords":{"type":"Point","coordinates":[-71.067215,42.314491]},"routes":["16"],"name":"Columbia Rd @ Bird St","id":"12932","node":"12932","rank":0.9371633229838993},
{"_id":{"$oid":"5715558524390aed5e6d26c7"},"neighs":["2932","2934","2933","12932"],"coords":{"type":"Point","coordinates":[-71.065765,42.316364]},"routes":["16"],"name":"Columbia Rd @ Hancock St","id":"1480","node":"1480","rank":0.9446147720697019},
{"_id":{"$oid":"5715558524390aed5e6d274b"},"neighs":["124","2935","2934","12932","1480"],"coords":{"type":"Point","coordinates":[-71.064812,42.317028]},"routes":["16"],"name":"Columbia Rd @ Stoughton St","id":"2933","node":"2933","rank":1.1530012088573856},
{"_id":{"$oid":"5715558524390aed5e6d274c"},"neighs":["1480","124","2935","2933"],"coords":{"type":"Point","coordinates":[-71.063438,42.318447]},"routes":["16"],"name":"Columbia Rd @ Annabel St","id":"2934","node":"2934","rank":0.948169677274936},
{"_id":{"$oid":"5715558524390aed5e6d274d"},"neighs":["125","2933","124","2934"],"coords":{"type":"Point","coordinates":[-71.0616,42.320255]},"routes":["16"],"name":"Columbia Rd @ Massachusetts Ave","id":"2935","node":"2935","rank":0.9430898522841572},
{"_id":{"$oid":"5715558524390aed5e6d269f"},"neighs":["2934","125","2933","2935"],"coords":{"type":"Point","coordinates":[-71.061569,42.320621]},"routes":["16"],"name":"Massachusetts Ave @ Columbia Rd","id":"124","node":"124","rank":0.9430898522841572},
{"_id":{"$oid":"5715558524390aed5e6d26a0"},"neighs":["2935","29051","29050","126","124"],"coords":{"type":"Point","coordinates":[-71.063942,42.323479]},"routes":["16"],"name":"Massachusetts Ave @ Clapp St","id":"125","node":"125","rank":1.145718247832958},
{"_id":{"$oid":"5715558524390aed5e6d26a2"},"neighs":["29051","29050","125"],"coords":{"type":"Point","coordinates":[-71.064919,42.324657]},"routes":["16"],"name":"Massachusetts Ave @ Allstate Rd","id":"126","node":"126","rank":0.7321521361652892},
{"_id":{"$oid":"5715558524390aed5e6d273e"},"neighs":["29052","125","29051","126"],"coords":{"type":"Point","coordinates":[-71.064514,42.326355]},"routes":["16"],"name":"South Bay Mall @ Stop and Shop","id":"29050","node":"29050","rank":0.9366267501705935},
{"_id":{"$oid":"5715558524390aed5e6d273f"},"neighs":["125","13","place-andrw","126","29052","29050"],"coords":{"type":"Point","coordinates":[-71.061577,42.327427]},"routes":["red","16"],"name":"South Bay Mall @ Office Max","id":"29051","node":"29051","rank":1.3327872969852907},
{"_id":{"$oid":"5715558524390aed5e6d2740"},"neighs":["place-andrw","13","29050","29051"],"coords":{"type":"Point","coordinates":[-71.061722,42.329971]},"routes":["red","16"],"name":"South Bay Mall @ Target","id":"29052","node":"29052","rank":0.9234197973352986},
{"_id":{"$oid":"5715558524390aed5e6d26a4"},"neighs":["35201","29051","place-andrw","5201","29052"],"coords":{"type":"Point","coordinates":[-71.057655,42.330154]},"routes":["red","16"],"name":"Andrew Station Busway","id":"13","node":"13","rank":1.1287327312980064},
{"_id":{"$oid":"5715558524390aed5e6d277b"},"neighs":["place-andrw","5202","35201","13"],"coords":{"type":"Point","coordinates":[-71.052933,42.32925]},"routes":["red","16"],"name":"Preble St @ Old Colony Ave","id":"5201","node":"5201","rank":0.9500376920923054},
{"_id":{"$oid":"5715558524390aed5e6d2751"},"neighs":["13","place-andrw","5203","5202","5201"],"coords":{"type":"Point","coordinates":[-71.052689,42.328495]},"routes":["red","16"],"name":"Old Colony Ave @ McDonough Way","id":"35201","node":"35201","rank":1.166891173966057},
{"_id":{"$oid":"5715558524390aed5e6d277c"},"neighs":["5201","5203","35201"],"coords":{"type":"Point","coordinates":[-71.052635,42.327187]},"routes":["16"],"name":"Old Colony Ave @ Gavin Way","id":"5202","node":"5202","rank":0.7631212653691628},
{"_id":{"$oid":"5715558524390aed5e6d277d"},"neighs":["35201","place-jfk","121","5202"],"coords":{"type":"Point","coordinates":[-71.052513,42.324448]},"routes":["red","16"],"name":"Old Colony Ave @ Msgr O'Callaghan Way","id":"5203","node":"5203","rank":1.007322958254723},
{"_id":{"$oid":"5715558524390aed5e6d269e"},"neighs":["139","138","place-jfk","5203"],"coords":{"type":"Point","coordinates":[-71.052391,42.320685]},"routes":["red","16"],"name":"Columbia Rd @ JFK/UMASS Station","id":"121","node":"121","rank":1.0369420373506484},
{"_id":{"$oid":"5715558524390aed5e6d26b8"},"neighs":["1139","139","place-jfk","121"],"coords":{"type":"Point","coordinates":[-71.048782,42.319965]},"routes":["red","16"],"name":"Mt Vernon St @ Bay Side Expo Center","id":"138","node":"138","rank":1.0622002874519174},
{"_id":{"$oid":"5715558524390aed5e6d26b9"},"neighs":["121","place-jfk","140","1139","138"],"coords":{"type":"Point","coordinates":[-71.04686,42.319313]},"routes":["red","16"],"name":"263 Mt Vernon St @ St Christopher's Church","id":"139","node":"139","rank":1.3207620421440083},
{"_id":{"$oid":"5715558524390aed5e6d2698"},"neighs":["142","138","140","139"],"coords":{"type":"Point","coordinates":[-71.044235,42.318447]},"routes":["16"],"name":"Mt Vernon St opp Harbor Point Blvd","id":"1139","node":"1139","rank":1.150879018119519},
{"_id":{"$oid":"5715558524390aed5e6d26bb"},"neighs":["139","142","1139"],"coords":{"type":"Point","coordinates":[-71.042801,42.317913]},"routes":["16"],"name":"Mt Vernon St @ Paul A. Dever School","id":"140","node":"140","rank":0.9119368429778025},
{"_id":{"$oid":"5715558524390aed5e6d26bc"},"neighs":["1139","11111","140"],"coords":{"type":"Point","coordinates":[-71.040215,42.31707]},"routes":["16"],"name":"Mt Vernon St @ South Point Dr","id":"142","node":"142","rank":1.0263938702637387},
{"_id":{"$oid":"5715558524390aed5e6d268d"},"neighs":["142"],"coords":{"type":"Point","coordinates":[-71.036118,42.312008]},"routes":["16"],"name":"UMass Boston Busway","id":"11111","node":"11111","rank":0.4429912269146724},
{"_id":{"$oid":"5715558524390aed5e6d26ce"},"neighs":["81317","place-nuniv","place-rugg","11257"],"coords":{"type":"Point","coordinates":[-71.088961,42.336377]},"routes":["39","green-e","orange","23"],"name":"Ruggles Station - Lane 1","id":"17862","node":"17862","rank":0.612924931521047},
{"_id":{"$oid":"5715558524390aed5e6d2691"},"neighs":["13590","11149","11323","1357","11148","place-rcmnl","17862","21148","1259"],"coords":{"type":"Point","coordinates":[-71.09269,42.331196]},"routes":["orange","66","23"],"name":"Malcolm X Blvd @ King St","id":"11257","node":"11257","rank":1.1654917790158852},
{"_id":{"$oid":"5715558524390aed5e6d26a1"},"neighs":["11259","1148","11149","1357","11148","21148","place-rcmnl","11257","11323"],"coords":{"type":"Point","coordinates":[-71.089859,42.330975]},"routes":["orange","66","23"],"name":"Malcolm X Blvd opp Madison Park HS","id":"1259","node":"1259","rank":1.1529312314861093},
{"_id":{"$oid":"5715558524390aed5e6d2697"},"neighs":["1","64","11257","1148","11148","11149","21148","64000","1259","11259"],"coords":{"type":"Point","coordinates":[-71.088417,42.330605]},"routes":["1","66","23"],"name":"Malcolm X Blvd opp O'Bryant HS","id":"11323","node":"11323","rank":1.2598938309117471},
{"_id":{"$oid":"5715558524390aed5e6d2692"},"neighs":["11148","1","11149","64","1148","399","11323","1259","64000"],"coords":{"type":"Point","coordinates":[-71.086205,42.329483]},"routes":["1","66","23"],"name":"Malcolm X Blvd @ Shawmut Ave","id":"11259","node":"11259","rank":1.1636434039170591},
{"_id":{"$oid":"5715558524390aed5e6d27d9"},"neighs":["40001","6","2","11149","1","1148","64","11259","11323","399"],"coords":{"type":"Point","coordinates":[-71.083984,42.329544]},"routes":["1","66","23"],"name":"Dudley Station","id":"64000","node":"64000","rank":1.3577165009245096},
{"_id":{"$oid":"5715558524390aed5e6d2756"},"neighs":["1","401","1148","11259","64","64000","40001"],"coords":{"type":"Point","coordinates":[-71.083313,42.327385]},"routes":["1","66","23"],"name":"Warren St opp Kearsage Ave","id":"399","node":"399","rank":1.0399007572510572},
{"_id":{"$oid":"5715558524390aed5e6d2757"},"neighs":["64","401","64000","404","399"],"coords":{"type":"Point","coordinates":[-71.083397,42.325352]},"routes":["1","66","23"],"name":"Warren St @ Dabney Pl","id":"40001","node":"40001","rank":0.8748353163882207},
{"_id":{"$oid":"5715558524390aed5e6d2758"},"neighs":["405","399","404","40001"],"coords":{"type":"Point","coordinates":[-71.082886,42.323921]},"routes":["23"],"name":"Warren St @ Walnut Ave","id":"401","node":"401","rank":0.822611592986216},
{"_id":{"$oid":"5715558524390aed5e6d2759"},"neighs":["406","405","40001","401"],"coords":{"type":"Point","coordinates":[-71.0821,42.321537]},"routes":["23"],"name":"Warren St opp Waverly St","id":"404","node":"404","rank":0.8991417188657369},
{"_id":{"$oid":"5715558524390aed5e6d275a"},"neighs":["401","407","406","404"],"coords":{"type":"Point","coordinates":[-71.081627,42.319931]},"routes":["23"],"name":"Warren St opp Woodbine St","id":"405","node":"405","rank":0.9605571190796487},
{"_id":{"$oid":"5715558524390aed5e6d275b"},"neighs":["404","407","405"],"coords":{"type":"Point","coordinates":[-71.082123,42.318134]},"routes":["23"],"name":"Warren St @ ML King Blvd","id":"406","node":"406","rank":0.7707764083236521},
{"_id":{"$oid":"5715558524390aed5e6d275c"},"neighs":["405","410","406"],"coords":{"type":"Point","coordinates":[-71.083031,42.316227]},"routes":["23"],"name":"Warren St @ Townsend St","id":"407","node":"407","rank":0.7864196190546565},
{"_id":{"$oid":"5715558524390aed5e6d275d"},"neighs":["411","412","407"],"coords":{"type":"Point","coordinates":[-71.083656,42.313263]},"routes":["23"],"name":"Warren St @ Waumbeck St","id":"410","node":"410","rank":0.7459254520605769},
{"_id":{"$oid":"5715558524390aed5e6d275e"},"neighs":["412","471","410"],"coords":{"type":"Point","coordinates":[-71.082985,42.311707]},"routes":["23"],"name":"Warren St @ Brunswick St","id":"411","node":"411","rank":0.6851177255115015},
{"_id":{"$oid":"5715558524390aed5e6d275f"},"neighs":["410","471","472","411"],"coords":{"type":"Point","coordinates":[-71.08326,42.310421]},"routes":["23"],"name":"Warren St @ Crawford St","id":"412","node":"412","rank":0.8370041940084063},
{"_id":{"$oid":"5715558524390aed5e6d2766"},"neighs":["2926","2925","468","411","472","2924","412"],"coords":{"type":"Point","coordinates":[-71.082886,42.307873]},"routes":["16","23"],"name":"Washington St @ Blue Hill Ave","id":"471","node":"471","rank":1.1986079105500376},
{"_id":{"$oid":"5715558524390aed5e6d2768"},"neighs":["412","475","2904","2923","2926","2924","2925","471","468"],"coords":{"type":"Point","coordinates":[-71.081657,42.306278]},"routes":["16","23"],"name":"Washington St @ Jeremiah Burke HS","id":"472","node":"472","rank":1.4377162337159402},
{"_id":{"$oid":"5715558524390aed5e6d2765"},"neighs":["2928","2904","471","2923","2926","2924","2925","472","475"],"coords":{"type":"Point","coordinates":[-71.080696,42.305458]},"routes":["16","23"],"name":"Washington St @ Columbia Rd","id":"468","node":"468","rank":1.4170706144143213},
{"_id":{"$oid":"5715558524390aed5e6d2769"},"neighs":["472","2904","2924","2926","2925","477","468"],"coords":{"type":"Point","coordinates":[-71.078522,42.303223]},"routes":["16","23"],"name":"Washington St @ Erie St","id":"475","node":"475","rank":1.1750223240146611},
{"_id":{"$oid":"5715558524390aed5e6d276a"},"neighs":["480","478","475"],"coords":{"type":"Point","coordinates":[-71.075844,42.300747]},"routes":["23"],"name":"Washington St @ Vassar St","id":"477","node":"477","rank":0.7394771057242214},
{"_id":{"$oid":"5715558524390aed5e6d276b"},"neighs":["482","480","477"],"coords":{"type":"Point","coordinates":[-71.073662,42.299263]},"routes":["23"],"name":"Washington St @ Harvard St","id":"478","node":"478","rank":0.8023325199545128},
{"_id":{"$oid":"5715558524390aed5e6d276c"},"neighs":["477","483","482","478"],"coords":{"type":"Point","coordinates":[-71.072685,42.297619]},"routes":["23"],"name":"Washington St @ Algonquin St","id":"480","node":"480","rank":1.0342364443562462},
{"_id":{"$oid":"5715558524390aed5e6d276d"},"neighs":["478","485","483","480"],"coords":{"type":"Point","coordinates":[-71.072197,42.295399]},"routes":["23"],"name":"Washington St @ Park St","id":"482","node":"482","rank":1.0500319615680198},
{"_id":{"$oid":"5715558524390aed5e6d276e"},"neighs":["426","480","485","482"],"coords":{"type":"Point","coordinates":[-71.071983,42.293797]},"routes":["23"],"name":"Washington St @ Wheatland Ave","id":"483","node":"483","rank":1.055694500134969},
{"_id":{"$oid":"5715558524390aed5e6d276f"},"neighs":["428","482","426","483"],"coords":{"type":"Point","coordinates":[-71.071762,42.291447]},"routes":["23"],"name":"Washington St @ Southern Ave","id":"485","node":"485","rank":1.0748945789402946},
{"_id":{"$oid":"5715558524390aed5e6d2760"},"neighs":["place-smmnl","483","428","485"],"coords":{"type":"Point","coordinates":[-71.069977,42.289944]},"routes":["red","23"],"name":"Talbot Ave @ Lithgow St","id":"426","node":"426","rank":1.100669606975339},
{"_id":{"$oid":"5715558524390aed5e6d2761"},"neighs":["485","place-smmnl","430","426"],"coords":{"type":"Point","coordinates":[-71.066971,42.288963]},"routes":["red","23"],"name":"Talbot Ave @ Welles Ave","id":"428","node":"428","rank":1.1427107939127699},
{"_id":{"$oid":"5715558524390aed5e6d2762"},"neighs":["place-asmnl","334","428"],"coords":{"type":"Point","coordinates":[-71.064499,42.286037]},"routes":["red","23"],"name":"Talbot Ave @ Dorchester Ave","id":"430","node":"430","rank":0.9705496124187128},
{"_id":{"$oid":"5715558524390aed5e6d274f"},"neighs":["place-asmnl","430"],"coords":{"type":"Point","coordinates":[-71.064489,42.284652]},"routes":["red","23"],"name":"Ashmont Station","id":"334","node":"334","rank":0.7034496465658274},
{"_id":{"$oid":"5715558524390aed5e6d2807"},"neighs":["520","875","place-forhl","1936"],"coords":{"type":"Point","coordinates":[-71.113686,42.300523]},"routes":["16","orange","39"],"name":"Forest Hills Station","id":"8750","node":"8750","rank":1.045713108166884},
{"_id":{"$oid":"5715558524390aed5e6d26d4"},"neighs":["1938","520","place-forhl","875","1937","8750"],"coords":{"type":"Point","coordinates":[-71.114632,42.303741]},"routes":["orange","16","39"],"name":"South St @ Spalding St","id":"1936","node":"1936","rank":1.5686474198203297},
{"_id":{"$oid":"5715558524390aed5e6d26d5"},"neighs":["1128","1938","1936"],"coords":{"type":"Point","coordinates":[-71.115143,42.306545]},"routes":["39"],"name":"South St @ Child St","id":"1937","node":"1937","rank":0.9238089406864589},
{"_id":{"$oid":"5715558524390aed5e6d26d6"},"neighs":["1936","1128","1937"],"coords":{"type":"Point","coordinates":[-71.115456,42.3078]},"routes":["39"],"name":"South St @ Carolina Ave","id":"1938","node":"1938","rank":0.9238089406864589},
{"_id":{"$oid":"5715558524390aed5e6d2693"},"neighs":["1937","1129","1938"],"coords":{"type":"Point","coordinates":[-71.115486,42.30859]},"routes":["39"],"name":"South St @ Sedgwick St","id":"1128","node":"1128","rank":1.020540174737111},
{"_id":{"$oid":"5715558524390aed5e6d2694"},"neighs":["1130","1128"],"coords":{"type":"Point","coordinates":[-71.114143,42.312199]},"routes":["39"],"name":"Centre St @ Seaverns Ave","id":"1129","node":"1129","rank":0.817430013310577},
{"_id":{"$oid":"5715558524390aed5e6d2695"},"neighs":["1132","1129"],"coords":{"type":"Point","coordinates":[-71.114037,42.314198]},"routes":["39"],"name":"Centre St @ Saint John St","id":"1130","node":"1130","rank":0.881467744471877},
{"_id":{"$oid":"5715558524390aed5e6d2696"},"neighs":["11131","1130"],"coords":{"type":"Point","coordinates":[-71.113365,42.316952]},"routes":["39"],"name":"Centre St @ Robinwood Ave","id":"1132","node":"1132","rank":0.9002816817979883},
{"_id":{"$oid":"5715558524390aed5e6d268e"},"neighs":["6570","1132"],"coords":{"type":"Point","coordinates":[-71.111931,42.318993]},"routes":["39"],"name":"Centre St @ Roseway","id":"11131","node":"11131","rank":0.8721225872617088},
{"_id":{"$oid":"5715558524390aed5e6d27da"},"neighs":["6571","11131"],"coords":{"type":"Point","coordinates":[-71.112022,42.321697]},"routes":["39"],"name":"S Huntington Ave @ Perkins St","id":"6570","node":"6570","rank":0.7907650085847693},
{"_id":{"$oid":"5715558524390aed5e6d27db"},"neighs":["6573","6570"],"coords":{"type":"Point","coordinates":[-71.11219,42.323811]},"routes":["39"],"name":"S Huntington Ave @ Bynner St","id":"6571","node":"6571","rank":0.6285109822397256},
{"_id":{"$oid":"5715558524390aed5e6d27dc"},"neighs":["place-bckhl","65741","place-hsmnl","6574","6571"],"coords":{"type":"Point","coordinates":[-71.111282,42.326595]},"routes":["green-e","39"],"name":"S Huntington Ave @ VA Hospital","id":"6573","node":"6573","rank":0.825144386710235},
{"_id":{"$oid":"5715558524390aed5e6d27dd"},"neighs":["1315","1366","6575","place-rvrwy","place-bckhl","place-hsmnl","6573","65741"],"coords":{"type":"Point","coordinates":[-71.110559,42.328681]},"routes":["66","green-e","39"],"name":"S Huntington Ave @ Heath St","id":"6574","node":"6574","rank":0.9826836260112207},
{"_id":{"$oid":"5715558524390aed5e6d27de"},"neighs":["1365","place-mispk","1315","1366","place-rvrwy","place-bckhl","place-hsmnl","6573","6574","6575"],"coords":{"type":"Point","coordinates":[-71.110931,42.329403]},"routes":["66","green-e","39"],"name":"100 S Huntington Ave","id":"65741","node":"65741","rank":1.1697208457462205},
{"_id":{"$oid":"5715558524390aed5e6d27df"},"neighs":["6574","place-hsmnl","place-bvmnl","1365","place-mispk","place-bckhl","1366","place-rvrwy","1526","65741","1315"],"coords":{"type":"Point","coordinates":[-71.111969,42.331871]},"routes":["green-d","66","green-e","39"],"name":"S Huntington Ave @ Huntington Ave","id":"6575","node":"6575","rank":1.2899450403966861},
{"_id":{"$oid":"5715558524390aed5e6d26a6"},"neighs":["place-hsmnl","6574","place-brmnl","65741","1363","place-bckhl","place-fenwd","1366","1362","place-rvrwy","1365","place-mispk","6575","1317"],"coords":{"type":"Point","coordinates":[-71.10968,42.333092]},"routes":["66","green-e","39"],"name":"Huntington Ave @ Parker Hill Ave","id":"1315","node":"1315","rank":1.4971172426615469},
{"_id":{"$oid":"5715558524390aed5e6d26a7"},"neighs":["place-mispk","31317","1365","place-fenwd","place-lngmd","1363","1360","1362","place-brmnl","1315","21317"],"coords":{"type":"Point","coordinates":[-71.104609,42.334229]},"routes":["66","green-e","39"],"name":"Huntington Ave opp Fenwood Rd","id":"1317","node":"1317","rank":1.1880450810075458},
{"_id":{"$oid":"5715558524390aed5e6d26db"},"neighs":["11780","place-fenwd","1363","place-lngmd","place-brmnl","1360","1362","13590","1317","31317"],"coords":{"type":"Point","coordinates":[-71.102699,42.334831]},"routes":["57","green-e","66","39"],"name":"Huntington Ave @ Wigglesworth St","id":"21317","node":"21317","rank":1.1380022574294713},
{"_id":{"$oid":"5715558524390aed5e6d274e"},"neighs":["place-brmnl","1317","13590","place-mfa","11780","1362","1360","11781","place-lngmd","21317","51317"],"coords":{"type":"Point","coordinates":[-71.099869,42.335831]},"routes":["66","57","green-e","39"],"name":"Huntington Ave @ Longwood Ave","id":"31317","node":"31317","rank":1.331893184449004},
{"_id":{"$oid":"5715558524390aed5e6d2779"},"neighs":["place-lngmd","place-mfa","81317","31317"],"coords":{"type":"Point","coordinates":[-71.095268,42.337612]},"routes":["green-e","39"],"name":"Huntington Ave @ Ruggles St","id":"51317","node":"51317","rank":0.5950716679910738},
{"_id":{"$oid":"5715558524390aed5e6d27e3"},"neighs":["place-masta","188","17862","89","place-symcl","place-nuniv","place-rugg","51317","91317"],"coords":{"type":"Point","coordinates":[-71.088806,42.340401]},"routes":["23","orange","1","green-e","39"],"name":"360 Huntington Ave","id":"81317","node":"81317","rank":1.202288794217334},
{"_id":{"$oid":"5715558524390aed5e6d280c"},"neighs":["88","place-masta","188","91","place-nuniv","place-symcl","81317","89","1399"],"coords":{"type":"Point","coordinates":[-71.08651,42.341244]},"routes":["orange","1","green-e","39"],"name":"Huntington Ave @ Gainsborough St","id":"91317","node":"91317","rank":1.1792041621272458},
{"_id":{"$oid":"5715558524390aed5e6d26ba"},"neighs":["place-masta","place-symcl","89","91","place-prmnl","188","11390","91317"],"coords":{"type":"Point","coordinates":[-71.081932,42.345531]},"routes":["orange","1","green-e","39"],"name":"Belvidere St @ Huntington Ave","id":"1399","node":"1399","rank":1.085969929072657},
{"_id":{"$oid":"5715558524390aed5e6d2699"},"neighs":["95","91","place-prmnl","93","place-hymnl","175","1399"],"coords":{"type":"Point","coordinates":[-71.08548,42.347778]},"routes":["green-e","1","green","39"],"name":"Dalton St @ Boylston St","id":"11390","node":"11390","rank":1.1336285348381283},
{"_id":{"$oid":"5715558524390aed5e6d26cd"},"neighs":["23391","place-coecl","place-bbsta","143","11390"],"coords":{"type":"Point","coordinates":[-71.077447,42.349974]},"routes":["orange","green-e","green","39"],"name":"Boylston St @ Dartmouth St","id":"175","node":"175","rank":0.9256280546223328},
{"_id":{"$oid":"5715558524390aed5e6d26bd"},"neighs":["place-armnl","place-coecl","place-bbsta","23391","175"],"coords":{"type":"Point","coordinates":[-71.075287,42.350594]},"routes":["orange","green-e","green","39"],"name":"Boylston St @ Clarendon St","id":"143","node":"143","rank":0.9673726523951178},
{"_id":{"$oid":"5715558524390aed5e6d26e0"},"neighs":["175","place-coecl","place-bbsta","143"],"coords":{"type":"Point","coordinates":[-71.075727,42.34735]},"routes":["green-e","green","orange","39"],"name":"Back Bay Station","id":"23391","node":"23391","rank":0.779586314809431},
{"_id":{"$oid":"5715558524390aed5e6d269c"},"neighs":["21317","31317","place-lngmd","11781"],"coords":{"type":"Point","coordinates":[-71.102234,42.338444]},"routes":["39","green-e","57"],"name":"Ave Louis Pasteur @ Longwood Ave","id":"11780","node":"11780","rank":0.5844873841006811},
{"_id":{"$oid":"5715558524390aed5e6d269d"},"neighs":["31317","place-lngmd","11520","11780"],"coords":{"type":"Point","coordinates":[-71.100838,42.340233]},"routes":["39","green-e","57"],"name":"Ave Louis Pasteur @ The Fenway","id":"11781","node":"11781","rank":0.624152112640905},
{"_id":{"$oid":"5715558524390aed5e6d269b"},"neighs":["place-smary","1808","place-fenwy","1807","11781"],"coords":{"type":"Point","coordinates":[-71.103287,42.343906]},"routes":["green-c","green-d","57"],"name":"Park Dr @ Fenway Sta","id":"11520","node":"11520","rank":0.850845806841429},
{"_id":{"$oid":"5715558524390aed5e6d26cf"},"neighs":["1809","place-smary","place-fenwy","1808","place-buest","11520"],"coords":{"type":"Point","coordinates":[-71.104187,42.345394]},"routes":["green-b","green-c","green-d","57"],"name":"Park Dr @ Fenway Station","id":"1807","node":"1807","rank":1.0042248099282782},
{"_id":{"$oid":"5715558524390aed5e6d26d0"},"neighs":["place-bland","11520","place-bucen","place-buest","place-smary","place-fenwy","1807","1809"],"coords":{"type":"Point","coordinates":[-71.105194,42.347099]},