[{"_id":{"$oid":"574c7fee4721a8859102784f"},"id":"place-lech","coords":{"coordinates":[-71.076536,42.370772],"type":"Point"},"name":"Lechmere Station","neighs":["place-spmnl"],"routes":["green"],"node":"place-lech","rank":0.5069814636491594},
{"_id":{"$oid":"574c7fee4721a88591027870"},"id":"place-spmnl","coords":{"coordinates":[-71.067666,42.366664],"type":"Point"},"name":"Science Park Station","neighs":["place-north","place-lech"],"routes":["green"],"node":"place-spmnl","rank":0.8322564318031622},
{"_id":{"$oid":"574c7fee4721a88591027859"},"id":"place-north","coords":{"coordinates":[-71.06129,42.365577],"type":"Point"},"name":"North Station","neighs":["place-haecl","place-bomnl","place-spmnl","place-ccmnl"],"routes":["orange","blue","green"],"node":"place-north","rank":1.1792743302410271},
{"_id":{"$oid":"574c7fee4721a88591027843"},"id":"place-haecl","coords":{"coordinates":[-71.05829,42.363021],"type":"Point"},"name":"Haymarket Station","neighs":["place-bomnl","place-gover","place-state","place-north"],"routes":["orange","blue","green"],"node":"place-haecl","rank":1.0341908490444303},
{"_id":{"$oid":"574c7fee4721a88591027840"},"id":"place-gover","coords":{"coordinates":[-71.059215,42.359705],"type":"Point"},"name":"Government Center Station","neighs":["place-bomnl","place-haecl","place-dwnxg","place-pktrm","place-state"],"routes":["red","orange","blue","green"],"node":"place-gover","rank":1.1966036844728112},
{"_id":{"$oid":"574c7fee4721a8859102785e"},"id":"place-pktrm","coords":{"coordinates":[-71.0624242,42.35639457],"type":"Point"},"name":"Park Street Station","neighs":["place-state","place-chncl","place-chmnl","place-dwnxg","place-gover","place-boyls"],"routes":["orange","red","blue","green"],"node":"place-pktrm","rank":1.3950770579511644},
{"_id":{"$oid":"574c7fee4721a88591027822"},"id":"place-boyls","coords":{"coordinates":[-71.06459,42.35302],"type":"Point"},"name":"Boylston Street Station","neighs":["place-dwnxg","place-pktrm","place-tumnl","place-chncl","place-armnl"],"routes":["red","orange","green"],"node":"place-boyls","rank":1.1305934119549559},
{"_id":{"$oid":"574c7fee4721a88591027817"},"id":"place-armnl","coords":{"coordinates":[-71.070893,42.351902],"type":"Point"},"name":"Arlington Station","neighs":["143","place-coecl","place-boyls"],"routes":["39","green"],"node":"place-armnl","rank":0.6586125056888805},
{"_id":{"$oid":"574c7fee4721a88591027834"},"id":"place-coecl","coords":{"coordinates":[-71.077447,42.349974],"type":"Point"},"name":"Copley Station","neighs":["23391","place-bbsta","143","175","place-hymnl","place-armnl","place-prmnl"],"routes":["orange","green-e","39","green"],"node":"place-coecl","rank":1.2471292390519473},
{"_id":{"$oid":"574c7fee4721a88591027861"},"id":"place-prmnl","coords":{"coordinates":[-71.081696,42.34557],"type":"Point"},"name":"Prudential Station","neighs":["91","89","188","11390","1399","place-coecl","place-masta","place-symcl"],"routes":["orange","39","1","green-e"],"node":"place-prmnl","rank":1.1224571591473629},
{"_id":{"$oid":"574c7fee4721a88591027878"},"id":"place-symcl","coords":{"coordinates":[-71.085056,42.342687],"type":"Point"},"name":"Symphony Station","neighs":["81317","91","1399","91317","188","89","place-nuniv","place-masta","88","place-prmnl"],"routes":["39","orange","1","green-e"],"node":"place-symcl","rank":1.2992747129318503},
{"_id":{"$oid":"574c7fee4721a8859102785b"},"id":"place-nuniv","coords":{"coordinates":[-71.088806,42.340401],"type":"Point"},"name":"Northeastern University Station","neighs":["188","89","91317","17862","81317","place-rugg","place-mfa","place-masta","place-symcl"],"routes":["orange","23","39","1","green-e"],"node":"place-nuniv","rank":1.202288794217334},
{"_id":{"$oid":"574c7fee4721a88591027853"},"id":"place-mfa","coords":{"coordinates":[-71.095512,42.337711],"type":"Point"},"name":"Museum of Fine Arts Station","neighs":["31317","51317","place-lngmd","place-nuniv"],"routes":["39","green-e"],"node":"place-mfa","rank":0.5950716679910738},
{"_id":{"$oid":"574c7fee4721a88591027850"},"id":"place-lngmd","coords":{"coordinates":[-71.100052,42.33596],"type":"Point"},"name":"Longwood Medical Area Station","neighs":["51317","13590","1317","1362","1360","11780","31317","21317","11781","place-mfa","place-brmnl"],"routes":["57","39","66","green-e"],"node":"place-lngmd","rank":1.331893184449004},
{"_id":{"$oid":"574c7fee4721a88591027826"},"id":"place-brmnl","coords":{"coordinates":[-71.104609,42.334229],"type":"Point"},"name":"Brigham Circle Station","neighs":["place-mispk","1362","1360","21317","31317","place-lngmd","1363","1365","1317","1315","place-fenwd"],"routes":["39","66","green-e"],"node":"place-brmnl","rank":1.1880450810075458},
{"_id":{"$oid":"574c7fee4721a8859102783c"},"id":"place-fenwd","coords":{"coordinates":[-71.105728,42.333706],"type":"Point"},"name":"Fenwood Road Station","neighs":["1360","1365","1362","1363","21317","place-mispk","1317","1315","place-brmnl"],"routes":["39","66","green-e"],"node":"place-fenwd","rank":0.9816822503504405},
{"_id":{"$oid":"574c7fee4721a88591027854"},"id":"place-mispk","coords":{"coordinates":[-71.109756,42.333195],"type":"Point"},"name":"Mission Park Station","neighs":["place-brmnl","1317","1363","6575","65741","place-bckhl","place-fenwd","1315","1366","1365","1362","place-rvrwy"],"routes":["39","66","green-e"],"node":"place-mispk","rank":1.2883319782243554},
{"_id":{"$oid":"574c7fee4721a88591027869"},"id":"place-rvrwy","coords":{"coordinates":[-71.111931,42.331684],"type":"Point"},"name":"Riverway Station","neighs":["place-bvmnl","place-hsmnl","6574","1365","1526","6575","1366","place-mispk","65741","1315","place-bckhl"],"routes":["green-d","39","66","green-e"],"node":"place-rvrwy","rank":1.289945040396686},
{"_id":{"$oid":"574c7fee4721a8859102781b"},"id":"place-bckhl","coords":{"coordinates":[-71.111313,42.330139],"type":"Point"},"name":"Back of the Hill Station","neighs":["1365","place-mispk","1366","1526","6575","6574","6573","place-hsmnl","1315","65741","place-rvrwy"],"routes":["39","66","green-e"],"node":"place-bckhl","rank":1.2922972295780042},
{"_id":{"$oid":"574c7fee4721a88591027846"},"id":"place-hsmnl","coords":{"coordinates":[-71.110559,42.328681],"type":"Point"},"name":"Heath Street Station","neighs":["1366","6575","place-rvrwy","6574","6573","1315","65741","place-bckhl"],"routes":["39","66","green-e"],"node":"place-hsmnl","rank":0.9826836260112207},
{"_id":{"$oid":"574c7fee4721a88591027848"},"id":"place-hymnl","coords":{"coordinates":[-71.087903,42.347888],"type":"Point"},"name":"Hynes Convention Center","neighs":["95","91","11390","place-coecl","93","place-kencl"],"routes":["1","39","green"],"node":"place-hymnl","rank":1.0407242568995807},
{"_id":{"$oid":"574c7fee4721a8859102784b"},"id":"place-kencl","coords":{"coordinates":[-71.095169,42.348949],"type":"Point"},"name":"Kenmore Station","neighs":["place-fenwy","place-smary","place-hymnl","place-bland"],"routes":["green-c","green","green-d","green-b"],"node":"place-kencl","rank":0.7394354902255129},
{"_id":{"$oid":"574c7fee4721a8859102783d"},"id":"place-fenwy","coords":{"coordinates":[-71.104187,42.345394],"type":"Point"},"name":"Fenway Station","neighs":["1809","place-smary","1808","place-buest","11520","1807","place-longw","place-kencl"],"routes":["green-c","57","green-b","green-d"],"node":"place-fenwy","rank":1.3390388317263713},
{"_id":{"$oid":"574c7fee4721a88591027851"},"id":"place-longw","coords":{"coordinates":[-71.110451,42.341145],"type":"Point"},"name":"Longwood Station","neighs":["place-kntst","place-fenwy","place-hwsst","place-bvmnl"],"routes":["green-c","green-d"],"node":"place-longw","rank":0.8351278439279041},
{"_id":{"$oid":"574c7fee4721a8859102782b"},"id":"place-bvmnl","coords":{"coordinates":[-71.116296,42.332774],"type":"Point"},"name":"Brookline Village Station","neighs":["1366","1526","6575","1367","place-brkhl","place-rvrwy","place-longw"],"routes":["39","green-e","66","green-d"],"node":"place-bvmnl","rank":1.1354876119441089},
{"_id":{"$oid":"574c7fee4721a88591027825"},"id":"place-brkhl","coords":{"coordinates":[-71.126999,42.331333],"type":"Point"},"name":"Brookline Hills Station","neighs":["place-bvmnl","place-bcnfd"],"routes":["green-d"],"node":"place-brkhl","rank":0.47767837130199275},
{"_id":{"$oid":"574c7fee4721a8859102781c"},"id":"place-bcnfd","coords":{"coordinates":[-71.140823,42.335846],"type":"Point"},"name":"Beaconsfield Station","neighs":["place-engav","place-brkhl","place-rsmnl","place-tapst","place-denrd"],"routes":["green-c","green-d"],"node":"place-bcnfd","rank":1.1145740954309822},
{"_id":{"$oid":"574c7fee4721a88591027867"},"id":"place-rsmnl","coords":{"coordinates":[-71.148952,42.335027],"type":"Point"},"name":"Reservoir Station","neighs":["place-chill","1028","1027","place-engav","21917","place-clmnl","place-chhil","place-bcnfd"],"routes":["green-c","86","green-b","green-d"],"node":"place-rsmnl","rank":1.420155168470051},
{"_id":{"$oid":"574c7fee4721a8859102782d"},"id":"place-chhil","coords":{"coordinates":[-71.165314,42.326653],"type":"Point"},"name":"Chestnut Hill Station D Riverside Line","neighs":["place-newto","place-rsmnl"],"routes":["green-d"],"node":"place-chhil","rank":0.6558609846615976},
{"_id":{"$oid":"574c7fee4721a88591027858"},"id":"place-newto","coords":{"coordinates":[-71.192429,42.329391],"type":"Point"},"name":"Newton Centre Station","neighs":["place-chhil","place-newtn"],"routes":["green-d"],"node":"place-newto","rank":0.8137455797052728},
{"_id":{"$oid":"574c7fee4721a88591027857"},"id":"place-newtn","coords":{"coordinates":[-71.206116,42.321735],"type":"Point"},"name":"Newton Highlands Station","neighs":["place-newto","place-eliot"],"routes":["green-d"],"node":"place-newtn","rank":0.9387947558461136},
{"_id":{"$oid":"574c7fee4721a88591027839"},"id":"place-eliot","coords":{"coordinates":[-71.216713,42.319023],"type":"Point"},"name":"Eliot Station","neighs":["place-waban","place-newtn"],"routes":["green-d"],"node":"place-eliot","rank":0.9824679817864083},
{"_id":{"$oid":"574c7fee4721a8859102787b"},"id":"place-waban","coords":{"coordinates":[-71.230728,42.325943],"type":"Point"},"name":"Waban Station","neighs":["place-eliot","place-woodl"],"routes":["green-d"],"node":"place-waban","rank":1.08618694433076},
{"_id":{"$oid":"574c7fee4721a88591027881"},"id":"place-woodl","coords":{"coordinates":[-71.244301,42.333374],"type":"Point"},"name":"Woodland Station","neighs":["place-river","place-waban"],"routes":["green-d"],"node":"place-woodl","rank":1.127079323599183},
{"_id":{"$oid":"574c7fee4721a88591027866"},"id":"place-river","coords":{"coordinates":[-71.251742,42.337059],"type":"Point"},"name":"Riverside Station","neighs":["place-woodl"],"routes":["green-d"],"node":"place-river","rank":0.6517899660467515},
{"_id":{"$oid":"574c7fee4721a8859102786d"},"id":"place-smary","coords":{"coordinates":[-71.107353,42.345974],"type":"Point"},"name":"St. Marys Street Station","neighs":["place-bucen","11520","1809","1807","place-kencl","place-fenwy","1808","place-hwsst"],"routes":["green-b","green-d","57","green-c"],"node":"place-smary","rank":1.3577294746793795},
{"_id":{"$oid":"574c7fee4721a88591027847"},"id":"place-hwsst","coords":{"coordinates":[-71.111145,42.344906],"type":"Point"},"name":"Hawes Street Station","neighs":["place-longw","place-smary","place-kntst"],"routes":["green-d","green-c"],"node":"place-hwsst","rank":0.6830480008383758},
{"_id":{"$oid":"574c7fee4721a8859102784d"},"id":"place-kntst","coords":{"coordinates":[-71.114197,42.344074],"type":"Point"},"name":"Kent Street Station","neighs":["place-longw","place-hwsst","place-stpul"],"routes":["green-d","green-c"],"node":"place-kntst","rank":0.7432838248049628},
{"_id":{"$oid":"574c7fee4721a88591027875"},"id":"place-stpul","coords":{"coordinates":[-71.116997,42.343327],"type":"Point"},"name":"Saint Paul Street","neighs":["place-kntst","1372","place-cool"],"routes":["66","green-c"],"node":"place-stpul","rank":0.7812938252452982},
{"_id":{"$oid":"574c7fee4721a88591027835"},"id":"place-cool","coords":{"coordinates":[-71.121201,42.342213],"type":"Point"},"name":"Coolidge Corner Station","neighs":["1371","place-sumav","1373","1372","place-stpul"],"routes":["66","green-c"],"node":"place-cool","rank":1.2328883815001759},
{"_id":{"$oid":"574c7fee4721a88591027877"},"id":"place-sumav","coords":{"coordinates":[-71.12561,42.34111],"type":"Point"},"name":"Summit Avenue Station","neighs":["1371","place-fbkst","1373","place-bndhl","1372","place-cool"],"routes":["66","green-c"],"node":"place-sumav","rank":1.5285291599949948},
{"_id":{"$oid":"574c7fee4721a88591027820"},"id":"place-bndhl","coords":{"coordinates":[-71.129082,42.340023],"type":"Point"},"name":"Brandon Hall Station","neighs":["place-sumav","place-fbkst"],"routes":["green-c"],"node":"place-bndhl","rank":0.6253161990737919},
{"_id":{"$oid":"574c7fee4721a8859102783b"},"id":"place-fbkst","coords":{"coordinates":[-71.131073,42.339725],"type":"Point"},"name":"Fairbanks Station","neighs":["place-sumav","place-bcnwa","place-bndhl"],"routes":["green-c"],"node":"place-fbkst","rank":0.9066304782839336},
{"_id":{"$oid":"574c7fee4721a8859102781d"},"id":"place-bcnwa","coords":{"coordinates":[-71.13533,42.339394],"type":"Point"},"name":"Washington Square Station","neighs":["place-fbkst","place-tapst"],"routes":["green-c"],"node":"place-bcnwa","rank":0.6426569756864016},
{"_id":{"$oid":"574c7fee4721a88591027879"},"id":"place-tapst","coords":{"coordinates":[-71.138702,42.338459],"type":"Point"},"name":"Tappan Street Station","neighs":["place-denrd","place-bcnfd","place-bcnwa"],"routes":["green-d","green-c"],"node":"place-tapst","rank":0.8230242408685609},
{"_id":{"$oid":"574c7fee4721a88591027837"},"id":"place-denrd","coords":{"coordinates":[-71.141853,42.337807],"type":"Point"},"name":"Dean Road Station","neighs":["place-bcnfd","place-engav","place-tapst"],"routes":["green-d","green-c"],"node":"place-denrd","rank":0.7395331537627631},
{"_id":{"$oid":"574c7fee4721a8859102783a"},"id":"place-engav","coords":{"coordinates":[-71.14566,42.336971],"type":"Point"},"name":"Englewood Avenue Station","neighs":["place-bcnfd","21917","place-rsmnl","place-denrd","place-clmnl"],"routes":["86","green-d","green-c"],"node":"place-engav","rank":0.9713677387945522},
{"_id":{"$oid":"574c7fee4721a88591027832"},"id":"place-clmnl","coords":{"coordinates":[-71.149326,42.336142],"type":"Point"},"name":"Cleveland Circle Station","neighs":["1029","place-chill","1028","place-engav","1027","21917","place-rsmnl"],"routes":["86","green-b","green-d","green-c"],"node":"place-clmnl","rank":1.096880264358695},
{"_id":{"$oid":"574c7fee4721a8859102781e"},"id":"place-bland","coords":{"coordinates":[-71.100258,42.349293],"type":"Point"},"name":"Blandford Street Station","neighs":["1808","1809","place-buest","place-kencl"],"routes":["57","green-c","green","green-d","green-b"],"node":"place-bland","rank":0.7300598196442802},
{"_id":{"$oid":"574c7fee4721a88591027829"},"id":"place-buest","coords":{"coordinates":[-71.103889,42.349735],"type":"Point"},"name":"Boston University East Station","neighs":["1807","place-fenwy","place-bland","1808","1809","place-bucen"],"routes":["57","green-d","green-b"],"node":"place-buest","rank":1.017237800581269},
{"_id":{"$oid":"574c7fee4721a88591027828"},"id":"place-bucen","coords":{"coordinates":[-71.106865,42.350082],"type":"Point"},"name":"Boston University Central Station","neighs":["place-smary","1809","1808","place-buwst","place-buest"],"routes":["green-c","57","green-b"],"node":"place-bucen","rank":0.874564446591294},
{"_id":{"$oid":"574c7fee4721a8859102782a"},"id":"place-buwst","coords":{"coordinates":[-71.113876,42.350941],"type":"Point"},"name":"Boston University West Station","neighs":["place-plsgr","956","place-stplb","place-bucen"],"routes":["57","green-b"],"node":"place-buwst","rank":0.7410759365873736},
{"_id":{"$oid":"574c7fee4721a88591027874"},"id":"place-stplb","coords":{"coordinates":[-71.116104,42.3512],"type":"Point"},"name":"Saint Paul Street","neighs":["place-babck","956","958","place-buwst","place-plsgr"],"routes":["57","green-b"],"node":"place-stplb","rank":0.8840920831202974},
{"_id":{"$oid":"574c7fee4721a8859102785f"},"id":"place-plsgr","coords":{"coordinates":[-71.118889,42.351521],"type":"Point"},"name":"Pleasant Street Station","neighs":["place-buwst","959","956","place-stplb","958","place-babck"],"routes":["57","green-b"],"node":"place-plsgr","rank":1.0356124812276593},
{"_id":{"$oid":"574c7fee4721a88591027819"},"id":"place-babck","coords":{"coordinates":[-71.12165,42.35182],"type":"Point"},"name":"Babcock Street Station","neighs":["956","place-stplb","960","place-brico","959","958","place-plsgr"],"routes":["57","green-b"],"node":"place-babck","rank":1.1713376273745872},
{"_id":{"$oid":"574c7fee4721a88591027824"},"id":"place-brico","coords":{"coordinates":[-71.125031,42.351967],"type":"Point"},"name":"Packards Corner Station","neighs":["958","959","960","place-harvd","962","place-babck"],"routes":["57","green-b"],"node":"place-brico","rank":1.0272884615057272},
{"_id":{"$oid":"574c7fee4721a88591027845"},"id":"place-harvd","coords":{"coordinates":[-71.131355,42.350243],"type":"Point"},"name":"Harvard Avenue Station","neighs":["962","1378","1379","1376","964","place-grigg","960","place-brico"],"routes":["57","66","green-b"],"node":"place-harvd","rank":1.41549873701355},
{"_id":{"$oid":"574c7fee4721a88591027841"},"id":"place-grigg","coords":{"coordinates":[-71.134949,42.348545],"type":"Point"},"name":"Griggs Street/Long Avenue Station","neighs":["place-wrnst","1376","place-harvd","1378","place-alsgr"],"routes":["66","green-b"],"node":"place-grigg","rank":1.0549113616072827},
{"_id":{"$oid":"574c7fee4721a88591027813"},"id":"place-alsgr","coords":{"coordinates":[-71.137955,42.348701],"type":"Point"},"name":"Allston Street Station","neighs":["967","place-wrnst","place-grigg"],"routes":["66","57","green-b"],"node":"place-alsgr","rank":0.7534461492056296},
{"_id":{"$oid":"574c7fee4721a88591027882"},"id":"place-wrnst","coords":{"coordinates":[-71.140457,42.348343],"type":"Point"},"name":"Warren Street Station","neighs":["place-grigg","967","place-wascm","place-alsgr"],"routes":["66","57","green-b"],"node":"place-wrnst","rank":1.0073112765256307},
{"_id":{"$oid":"574c7fee4721a8859102787c"},"id":"place-wascm","coords":{"coordinates":[-71.142853,42.343864],"type":"Point"},"name":"Washington Street Station","neighs":["place-wrnst","place-sthld"],"routes":["green-b"],"node":"place-wascm","rank":0.5929947365915142},
{"_id":{"$oid":"574c7fee4721a88591027873"},"id":"place-sthld","coords":{"coordinates":[-71.146202,42.341614],"type":"Point"},"name":"Sutherland Road Station","neighs":["place-chswk","place-wascm"],"routes":["green-b"],"node":"place-sthld","rank":0.5308251449346387},
{"_id":{"$oid":"574c7fee4721a88591027831"},"id":"place-chswk","coords":{"coordinates":[-71.150711,42.340805],"type":"Point"},"name":"Chiswick Road Station","neighs":["1033","1027","1030","1029","1032","1028","place-sthld","1031","place-chill"],"routes":["86","green-b"],"node":"place-chswk","rank":1.3383982712693896},
{"_id":{"$oid":"574c7fee4721a8859102782e"},"id":"place-chill","coords":{"coordinates":[-71.15316,42.338169],"type":"Point"},"name":"Chestnut Hill Avenue Station","neighs":["place-clmnl","1031","1030","21917","1027","place-sougr","1029","1028","place-rsmnl","place-chswk"],"routes":["green-c","86","green-d","green-b"],"node":"place-chill","rank":1.4511039573171487},
{"_id":{"$oid":"574c7fee4721a8859102786f"},"id":"place-sougr","coords":{"coordinates":[-71.157661,42.3396],"type":"Point"},"name":"South Street Station","neighs":["1028","place-lake","1030","1029","1031","place-chill"],"routes":["86","green-b"],"node":"place-sougr","rank":1.0084168313344875},
{"_id":{"$oid":"574c7fee4721a8859102784e"},"id":"place-lake","coords":{"coordinates":[-71.166769,42.340081],"type":"Point"},"name":"Boston College Station","neighs":["place-sougr"],"routes":["green-b"],"node":"place-lake","rank":0.29265042224088444},
{"_id":{"$oid":"574c7fee4721a8859102784c"},"id":"place-knncl","coords":{"coordinates":[-71.08617653,42.36249079],"type":"Point"},"name":"Kendall/MIT Station","neighs":["place-chmnl","place-cntsq"],"routes":["red"],"node":"place-knncl","rank":0.5153666009348804},
{"_id":{"$oid":"574c7fee4721a88591027818"},"id":"place-asmnl","coords":{"coordinates":[-71.064489,42.284652],"type":"Point"},"name":"Ashmont Station","neighs":["334","430","place-smmnl"],"routes":["23","red"],"node":"place-asmnl","rank":0.9793455690892298},
{"_id":{"$oid":"574c7fee4721a8859102783e"},"id":"place-fldcr","coords":{"coordinates":[-71.061667,42.300093],"type":"Point"},"name":"Fields Corner Station","neighs":["place-smmnl","place-shmnl"],"routes":["red"],"node":"place-fldcr","rank":0.6864123730587731},
{"_id":{"$oid":"574c7fee4721a8859102786c"},"id":"place-shmnl","coords":{"coordinates":[-71.053331,42.31129],"type":"Point"},"name":"Savin Hill Station","neighs":["place-jfk","place-fldcr"],"routes":["red"],"node":"place-shmnl","rank":0.6661348636855396},
{"_id":{"$oid":"574c7fee4721a8859102784a"},"id":"place-jfk","coords":{"coordinates":[-71.052391,42.320685],"type":"Point"},"name":"JFK/UMass Station","neighs":["139","138","5203","121","place-andrw","place-nqncy","place-shmnl"],"routes":["16","red"],"node":"place-jfk","rank":1.8270072961131978},
{"_id":{"$oid":"574c7fee4721a88591027814"},"id":"place-andrw","coords":{"coordinates":[-71.057655,42.330154],"type":"Point"},"name":"Andrew Station","neighs":["29051","5201","13","29052","place-jfk","35201","place-brdwy"],"routes":["16","red"],"node":"place-andrw","rank":1.6049656097367542},
{"_id":{"$oid":"574c7fee4721a88591027823"},"id":"place-brdwy","coords":{"coordinates":[-71.056967,42.342622],"type":"Point"},"name":"Broadway Station","neighs":["place-sstat","place-andrw"],"routes":["red"],"node":"place-brdwy","rank":0.6016572335544712},
{"_id":{"$oid":"574c7fee4721a88591027871"},"id":"place-sstat","coords":{"coordinates":[-71.055242,42.352271],"type":"Point"},"name":"South Station","neighs":["place-dwnxg","place-brdwy"],"routes":["red"],"node":"place-sstat","rank":0.6051424392714683},
{"_id":{"$oid":"574c7fee4721a88591027838"},"id":"place-dwnxg","coords":{"coordinates":[-71.060225,42.355518],"type":"Point"},"name":"Downtown Crossing Station","neighs":["place-gover","place-boyls","place-pktrm","place-chncl","place-sstat","place-state"],"routes":["blue","green","red","orange"],"node":"place-dwnxg","rank":1.409367909509917},
{"_id":{"$oid":"574c7fee4721a8859102782f"},"id":"place-chmnl","coords":{"coordinates":[-71.070628,42.361166],"type":"Point"},"name":"Charles/MGH Station","neighs":["place-pktrm","place-knncl"],"routes":["red"],"node":"place-chmnl","rank":0.5661816726079038},
{"_id":{"$oid":"574c7fee4721a8859102786e"},"id":"place-smmnl","coords":{"coordinates":[-71.06573796,42.29312583],"type":"Point"},"name":"Shawmut Station","neighs":["426","428","place-asmnl","place-fldcr"],"routes":["23","red"],"node":"place-smmnl","rank":1.1980780539952998},
{"_id":{"$oid":"574c7fee4721a88591027833"},"id":"place-cntsq","coords":{"coordinates":[-71.103802,42.365486],"type":"Point"},"name":"Central Square Station","neighs":["2441","730","73","101","72","104","1058","2443","2442","1060","place-harsq","102","place-knncl"],"routes":["70","83","1","red"],"node":"place-cntsq","rank":1.905045609083879},
{"_id":{"$oid":"574c7fee4721a88591027844"},"id":"place-harsq","coords":{"coordinates":[-71.118956,42.373362],"type":"Point"},"name":"Harvard Square Station","neighs":["2565","110","place-cntsq","20761","109","place-portr"],"routes":["1","86","red"],"node":"place-harsq","rank":1.0920331257246645},
{"_id":{"$oid":"574c7fee4721a88591027860"},"id":"place-portr","coords":{"coordinates":[-71.119149,42.3884],"type":"Point"},"name":"Porter Square Station","neighs":["2432","2430","2299","place-harsq","2431","2300","place-davis"],"routes":["83","red"],"node":"place-portr","rank":1.2325131350231546},
{"_id":{"$oid":"574c7fee4721a88591027836"},"id":"place-davis","coords":{"coordinates":[-71.121815,42.39674],"type":"Point"},"name":"Davis Station","neighs":["2630","5014","2582","2628","2631","5015","5104","place-alfcl","place-portr","5013"],"routes":["89","red"],"node":"place-davis","rank":1.5341444687423758},
{"_id":{"$oid":"574c7fee4721a88591027812"},"id":"place-alfcl","coords":{"coordinates":[-71.142483,42.395428],"type":"Point"},"name":"Alewife Station","neighs":["2425","place-davis"],"routes":["83","red"],"node":"place-alfcl","rank":0.5242723327809725},
{"_id":{"$oid":"574c7fee4721a8859102785a"},"id":"place-nqncy","coords":{"coordinates":[-71.029583,42.275275],"type":"Point"},"name":"North Quincy Station","neighs":["place-jfk","place-wlsta"],"routes":["red"],"node":"place-nqncy","rank":0.7667212497149087},
{"_id":{"$oid":"574c7fee4721a8859102787f"},"id":"place-wlsta","coords":{"coordinates":[-71.0203369,42.2665139],"type":"Point"},"name":"Wollaston Station","neighs":["place-qnctr","place-nqncy"],"routes":["red"],"node":"place-wlsta","rank":0.8870104490191799},
{"_id":{"$oid":"574c7fee4721a88591027863"},"id":"place-qnctr","coords":{"coordinates":[-71.005409,42.251809],"type":"Point"},"name":"Quincy Center Station","neighs":["place-qamnl","place-wlsta"],"routes":["red"],"node":"place-qnctr","rank":1.0318939551022304},
{"_id":{"$oid":"574c7fee4721a88591027862"},"id":"place-qamnl","coords":{"coordinates":[-71.007153,42.233391],"type":"Point"},"name":"Quincy Adams Station","neighs":["place-brntn","place-qnctr"],"routes":["red"],"node":"place-qamnl","rank":1.0893665322218538},
{"_id":{"$oid":"574c7fee4721a88591027827"},"id":"place-brntn","coords":{"coordinates":[-71.0011385,42.2078543],"type":"Point"},"name":"Braintree Station","neighs":["place-qamnl"],"routes":["red"],"node":"place-brntn","rank":0.6385944127821901},
{"_id":{"$oid":"574c7fee4721a88591027830"},"id":"place-chncl","coords":{"coordinates":[-71.062752,42.352547],"type":"Point"},"name":"Chinatown Station","neighs":["place-pktrm","place-boyls","place-tumnl","place-dwnxg"],"routes":["red","green","orange"],"node":"place-chncl","rank":0.9370612929009089},
{"_id":{"$oid":"574c7fee4721a8859102783f"},"id":"place-forhl","coords":{"coordinates":[-71.113686,42.300523],"type":"Point"},"name":"Forest Hills Station","neighs":["1936","520","8750","875","place-grnst"],"routes":["39","16","orange"],"node":"place-forhl","rank":1.3224853027281152},
{"_id":{"$oid":"574c7fee4721a8859102786a"},"id":"place-sbmnl","coords":{"coordinates":[-71.104248,42.317062],"type":"Point"},"name":"Stony Brook Station","neighs":["place-jaksn","place-grnst"],"routes":["orange"],"node":"place-sbmnl","rank":0.6675952609420132},
{"_id":{"$oid":"574c7fee4721a88591027849"},"id":"place-jaksn","coords":{"coordinates":[-71.099592,42.323132],"type":"Point"},"name":"Jackson Square Station","neighs":["place-sbmnl","place-rcmnl"],"routes":["orange"],"node":"place-jaksn","rank":0.5612513371230168},
{"_id":{"$oid":"574c7fee4721a88591027865"},"id":"place-rcmnl","coords":{"coordinates":[-71.095451,42.331397],"type":"Point"},"name":"Roxbury Crossing Station","neighs":["1259","11148","13590","11257","1357","place-rugg","21148","place-jaksn"],"routes":["66","23","orange"],"node":"place-rcmnl","rank":1.170231763801429},
{"_id":{"$oid":"574c7fee4721a88591027868"},"id":"place-rugg","coords":{"coordinates":[-71.088961,42.336377],"type":"Point"},"name":"Ruggles Station","neighs":["place-rcmnl","place-nuniv","81317","17862","place-masta"],"routes":["39","green-e","23","orange"],"node":"place-rugg","rank":0.7441800274884468},
{"_id":{"$oid":"574c7fee4721a88591027852"},"id":"place-masta","coords":{"coordinates":[-71.083423,42.341512],"type":"Point"},"name":"Massachusetts Ave. Station","neighs":["place-prmnl","81317","87","91317","place-bbsta","88","188","place-symcl","1399","89","place-nuniv","place-rugg"],"routes":["39","green-e","1","orange"],"node":"place-masta","rank":1.5933452745096244},
{"_id":{"$oid":"574c7fee4721a8859102781a"},"id":"place-bbsta","coords":{"coordinates":[-71.075727,42.34735],"type":"Point"},"name":"Back Bay Station","neighs":["175","143","place-masta","place-tumnl","23391","place-coecl"],"routes":["green-e","green","39","orange"],"node":"place-bbsta","rank":1.0997626944838719},
{"_id":{"$oid":"574c7fee4721a8859102787a"},"id":"place-tumnl","coords":{"coordinates":[-71.063917,42.349662],"type":"Point"},"name":"Tufts Medical Center Station","neighs":["place-boyls","place-chncl","place-bbsta"],"routes":["green","orange"],"node":"place-tumnl","rank":0.6976477448735401},
{"_id":{"$oid":"574c7fee4721a88591027842"},"id":"place-grnst","coords":{"coordinates":[-71.107414,42.310525],"type":"Point"},"name":"Green St. Station","neighs":["place-sbmnl","place-forhl"],"routes":["orange"],"node":"place-grnst","rank":0.6619435978833621},
{"_id":{"$oid":"574c7fee4721a88591027872"},"id":"place-state","coords":{"coordinates":[-71.057598,42.358978],"type":"Point"},"name":"State St. Station","neighs":["place-bomnl","place-gover","place-aqucl","place-haecl","place-pktrm","place-dwnxg"],"routes":["red","green","blue","orange"],"node":"place-state","rank":1.472785389694338},
{"_id":{"$oid":"574c7fee4721a8859102782c"},"id":"place-ccmnl","coords":{"coordinates":[-71.069533,42.373622],"type":"Point"},"name":"Community College Station","neighs":["place-sull","place-north"],"routes":["orange"],"node":"place-ccmnl","rank":0.5436918895646633},
{"_id":{"$oid":"574c7fee4721a88591027876"},"id":"place-sull","coords":{"coordinates":[-71.076994,42.383975],"type":"Point"},"name":"Sullivan Station","neighs":["5504","2713","2777","2714","2779","2717","2874","2718","place-welln","place-ccmnl"],"routes":["105","89","86","101","orange"],"node":"place-sull","rank":1.659912035558815},
{"_id":{"$oid":"574c7fee4721a8859102787d"},"id":"place-welln","coords":{"coordinates":[-71.077082,42.40237],"type":"Point"},"name":"Wellington Station","neighs":["place-mlmnl","place-sull"],"routes":["orange"],"node":"place-welln","rank":0.5429429442884706},
{"_id":{"$oid":"574c7fee4721a88591027855"},"id":"place-mlmnl","coords":{"coordinates":[-71.07411,42.426632],"type":"Point"},"name":"Malden Center Station","neighs":["5369","53270","place-welln","place-ogmnl"],"routes":["105","orange"],"node":"place-mlmnl","rank":1.1560823950358001},
{"_id":{"$oid":"574c7fee4721a8859102785c"},"id":"place-ogmnl","coords":{"coordinates":[-71.071097,42.43668],"type":"Point"},"name":"Oak Grove Station","neighs":["place-mlmnl"],"routes":["orange"],"node":"place-ogmnl","rank":0.40042812821479},
{"_id":{"$oid":"574c7fee4721a88591027815"},"id":"place-aport","coords":{"coordinates":[-71.030395,42.374262],"type":"Point"},"name":"Airport Station","neighs":["place-wimnl","place-mvbcl"],"routes":["blue"],"node":"place-aport","rank":0.845451338634811},
{"_id":{"$oid":"574c7fee4721a88591027880"},"id":"place-wondl","coords":{"coordinates":[-70.991648,42.41342],"type":"Point"},"name":"Wonderland Station","neighs":["4715","15795","place-rbmnl"],"routes":["116","blue"],"node":"place-wondl","rank":1.1150744794748069},
{"_id":{"$oid":"574c7fee4721a8859102781f"},"id":"place-bmmnl","coords":{"coordinates":[-70.99231944,42.39754234],"type":"Point"},"name":"Beachmont Station","neighs":["place-rbmnl","place-sdmnl"],"routes":["blue"],"node":"place-bmmnl","rank":0.9146053849947162},
{"_id":{"$oid":"574c7fee4721a8859102786b"},"id":"place-sdmnl","coords":{"coordinates":[-70.99712259,42.39050067],"type":"Point"},"name":"Suffolk Downs Station","neighs":["place-bmmnl","place-orhte"],"routes":["blue"],"node":"place-sdmnl","rank":0.9364639865968922},
{"_id":{"$oid":"574c7fee4721a8859102785d"},"id":"place-orhte","coords":{"coordinates":[-71.004736,42.386867],"type":"Point"},"name":"Orient Heights Station","neighs":["place-wimnl","place-sdmnl"],"routes":["blue"],"node":"place-orhte","rank":0.939387283667555},
{"_id":{"$oid":"574c7fee4721a8859102787e"},"id":"place-wimnl","coords":{"coordinates":[-71.02286539,42.3796403],"type":"Point"},"name":"Wood Island Station","neighs":["place-orhte","place-aport"],"routes":["blue"],"node":"place-wimnl","rank":0.9040223520959543},
{"_id":{"$oid":"574c7fee4721a88591027864"},"id":"place-rbmnl","coords":{"coordinates":[-70.99253321,42.40784254],"type":"Point"},"name":"Revere Beach Station","neighs":["place-bmmnl","place-wondl"],"routes":["blue"],"node":"place-rbmnl","rank":0.8555714093386945},
{"_id":{"$oid":"574c7fee4721a88591027856"},"id":"place-mvbcl","coords":{"coordinates":[-71.03952958,42.36911856],"type":"Point"},"name":"Maverick Station","neighs":["5740","place-aqucl","5742","place-aport"],"routes":["116","blue"],"node":"place-mvbcl","rank":1.4328199146769585},
{"_id":{"$oid":"574c7fee4721a88591027816"},"id":"place-aqucl","coords":{"coordinates":[-71.051652,42.359784],"type":"Point"},"name":"Aquarium Station","neighs":["place-mvbcl","place-state"],"routes":["orange","blue"],"node":"place-aqucl","rank":0.6659910271688556},
{"_id":{"$oid":"574c7fee4721a88591027821"},"id":"place-bomnl","coords":{"coordinates":[-71.062037,42.361365],"type":"Point"},"name":"Bowdoin Station","neighs":["place-north","place-state","place-haecl","place-gover"],"routes":["orange","green","blue"],"node":"place-bomnl","rank":1.0341908490444303},
{"_id":{"$oid":"574c7fee4721a885910277b8"},"id":"64","coords":{"coordinates":[-71.083885,42.329788],"type":"Point"},"name":"Dudley Station","neighs":["11323","11149","40001","2","11259","1148","6","399","64000","1"],"routes":["23","66","1"],"node":"64","rank":1.3577165009048222},
{"_id":{"$oid":"574c7fee4721a88591027645"},"id":"1","coords":{"coordinates":[-71.082756,42.330956],"type":"Point"},"name":"Washington St opp Ruggles St","neighs":["11323","11149","11259","1148","399","6","64000","2","64"],"routes":["23","66","1"],"node":"1","rank":1.209770184902895},
{"_id":{"$oid":"574c7fee4721a885910276b8"},"id":"2","coords":{"coordinates":[-71.081253,42.332325],"type":"Point"},"name":"Washington St @ Melnea Cass Blvd","neighs":["1148","10003","6","64000","64","1"],"routes":["23","66","1"],"node":"2","rank":0.9222739192458896},
{"_id":{"$oid":"574c7fee4721a885910277b1"},"id":"6","coords":{"coordinates":[-71.079575,42.332016],"type":"Point"},"name":"Melnea Cass Blvd @ Harrison Ave","neighs":["64","1","64000","10003","2"],"routes":["23","66","1"],"node":"6","rank":0.8058366443079299},
{"_id":{"$oid":"574c7fee4721a88591027646"},"id":"10003","coords":{"coordinates":[-71.076233,42.331593],"type":"Point"},"name":"Albany St opp Randall St","neighs":["58","2","57","6"],"routes":["1"],"node":"10003","rank":0.8415878787998592},
{"_id":{"$oid":"574c7fee4721a88591027796"},"id":"57","coords":{"coordinates":[-71.07354,42.333824],"type":"Point"},"name":"Massachusetts Ave @ Albany St","neighs":["10590","58","10003"],"routes":["1"],"node":"57","rank":0.7435402886296186},
{"_id":{"$oid":"574c7fee4721a885910277b0"},"id":"58","coords":{"coordinates":[-71.074928,42.334949],"type":"Point"},"name":"Massachusetts Ave @ Harrison Ave","neighs":["10003","10590","57"],"routes":["1"],"node":"58","rank":0.7435402886296186},
{"_id":{"$oid":"574c7fee4721a88591027666"},"id":"10590","coords":{"coordinates":[-71.076958,42.33662],"type":"Point"},"name":"Massachusetts Ave @ Washington St","neighs":["57","87","58"],"routes":["1"],"node":"10590","rank":0.7105780835652417},
{"_id":{"$oid":"574c7fee4721a885910277e5"},"id":"87","coords":{"coordinates":[-71.08036,42.339458],"type":"Point"},"name":"Massachusetts Ave @ Tremont St","neighs":["89","188","place-masta","88","10590"],"routes":["orange","1"],"node":"87","rank":0.8064408920189514},
{"_id":{"$oid":"574c7fee4721a885910277e8"},"id":"88","coords":{"coordinates":[-71.081619,42.340607],"type":"Point"},"name":"Massachusetts Ave @ Columbus Ave","neighs":["91317","89","place-symcl","place-masta","188","87"],"routes":["39","orange","green-e","1"],"node":"88","rank":0.843462165250046},
{"_id":{"$oid":"574c7fee4721a885910276b2"},"id":"188","coords":{"coordinates":[-71.083423,42.341512],"type":"Point"},"name":"Massachusetts Ave @ Massachusetts Ave Station","neighs":["place-nuniv","81317","87","1399","91317","place-symcl","place-masta","89","place-prmnl","88"],"routes":["39","orange","green-e","1"],"node":"188","rank":1.3125019839640883},
{"_id":{"$oid":"574c7fee4721a885910277e9"},"id":"89","coords":{"coordinates":[-71.084122,42.342304],"type":"Point"},"name":"Massachusetts Ave @ St Botolph St","neighs":["81317","91","place-nuniv","place-prmnl","88","1399","87","91317","place-masta","place-symcl","188"],"routes":["39","orange","green-e","1"],"node":"89","rank":1.435872311218062},
{"_id":{"$oid":"574c7fee4721a885910277eb"},"id":"91","coords":{"coordinates":[-71.086739,42.345329],"type":"Point"},"name":"Massachusetts Ave @ Clearway St","neighs":["91317","1399","place-symcl","11390","place-hymnl","place-prmnl","93","89"],"routes":["green","39","green-e","1"],"node":"91","rank":1.1561219616708573},
{"_id":{"$oid":"574c7fee4721a885910277f1"},"id":"93","coords":{"coordinates":[-71.087903,42.347888],"type":"Point"},"name":"Massachusetts Ave @ Newbury St","neighs":["place-hymnl","95","11390","91"],"routes":["39","green","1"],"node":"93","rank":0.7252614800841911},
{"_id":{"$oid":"574c7fee4721a885910277f2"},"id":"95","coords":{"coordinates":[-71.089333,42.350773],"type":"Point"},"name":"Massachusetts Ave @ Beacon St","neighs":["11390","96","place-hymnl","93"],"routes":["39","green","1"],"node":"95","rank":0.785962305308845},
{"_id":{"$oid":"574c7fee4721a885910277f7"},"id":"96","coords":{"coordinates":[-71.092735,42.357613],"type":"Point"},"name":"Massachusetts Ave @ Memorial Dr","neighs":["99","97","95"],"routes":["1"],"node":"96","rank":0.6920763234394304},
{"_id":{"$oid":"574c7fee4721a885910277fe"},"id":"97","coords":{"coordinates":[-71.093544,42.359184],"type":"Point"},"name":"77 Massachusetts Ave","neighs":["99","96"],"routes":["1"],"node":"97","rank":0.5059803916660583},
{"_id":{"$oid":"574c7fee4721a88591027810"},"id":"99","coords":{"coordinates":[-71.095718,42.360756],"type":"Point"},"name":"Massachusetts Ave @ Albany St","neighs":["96","73","730","101","97"],"routes":["70","1"],"node":"99","rank":0.9377898181016462},
{"_id":{"$oid":"574c7fee4721a88591027647"},"id":"101","coords":{"coordinates":[-71.099487,42.362988],"type":"Point"},"name":"Massachusetts Ave @ Sidney St","neighs":["2443","place-cntsq","72","730","1060","102","73","99"],"routes":["red","70","83","1"],"node":"101","rank":1.164471881805804},
{"_id":{"$oid":"574c7fee4721a88591027648"},"id":"102","coords":{"coordinates":[-71.103802,42.365486],"type":"Point"},"name":"Massachusetts Ave @ Prospect St","neighs":["2441","730","73","1058","2443","104","72","2442","place-cntsq","1060","101"],"routes":["70","red","83","1"],"node":"102","rank":1.5373070258832364},
{"_id":{"$oid":"574c7fee4721a88591027656"},"id":"104","coords":{"coordinates":[-71.106018,42.366837],"type":"Point"},"name":"Massachusetts Ave @ Bigelow St","neighs":["107","72","2442","102","1060","1058","2443","106","place-cntsq"],"routes":["70","red","83","1"],"node":"104","rank":1.3752940995377962},
{"_id":{"$oid":"574c7fee4721a88591027667"},"id":"106","coords":{"coordinates":[-71.10862,42.368389],"type":"Point"},"name":"Massachusetts Ave @ Hancock St","neighs":["108","107","104"],"routes":["1"],"node":"106","rank":0.6452489750273286},
{"_id":{"$oid":"574c7fee4721a88591027669"},"id":"107","coords":{"coordinates":[-71.110771,42.369267],"type":"Point"},"name":"Massachusetts Ave @ Dana St","neighs":["109","104","108","106"],"routes":["1"],"node":"107","rank":0.8200574601804532},
{"_id":{"$oid":"574c7fee4721a8859102766a"},"id":"108","coords":{"coordinates":[-71.112999,42.37027],"type":"Point"},"name":"Massachusetts Ave @ Trowbridge St","neighs":["106","109","107"],"routes":["1"],"node":"108","rank":0.6736231748144589},
{"_id":{"$oid":"574c7fee4721a8859102766b"},"id":"109","coords":{"coordinates":[-71.115372,42.372101],"type":"Point"},"name":"Massachusetts Ave @ Bow St","neighs":["2565","place-harsq","20761","107","110","108"],"routes":["red","86","1"],"node":"109","rank":1.171950643066749},
{"_id":{"$oid":"574c7fee4721a8859102766c"},"id":"110","coords":{"coordinates":[-71.118126,42.37326],"type":"Point"},"name":"Massachusetts Ave @ Holyoke St","neighs":["20761","2567","2565","place-harsq","109"],"routes":["86","red","1"],"node":"110","rank":0.9625555749712543},
{"_id":{"$oid":"574c7fee4721a885910277ed"},"id":"9147","coords":{"coordinates":[-71.125923,42.427368],"type":"Point"},"name":"Winthrop St @ Brooks St - Medford HS","neighs":["9149"],"routes":["101"],"node":"9147","rank":0.33552518904780637},
{"_id":{"$oid":"574c7fee4721a885910277ee"},"id":"9149","coords":{"coordinates":[-71.123085,42.425346],"type":"Point"},"name":"Winthrop St @ Exeter St","neighs":["6301","6300","6299","9150","9147"],"routes":["101"],"node":"9149","rank":1.0901155862179224},
{"_id":{"$oid":"574c7fee4721a885910277ef"},"id":"9150","coords":{"coordinates":[-71.120979,42.423721],"type":"Point"},"name":"Winthrop St @ Suffolk St","neighs":["6301","6300","6299","9149","6298","5008"],"routes":["101"],"node":"9150","rank":1.1857617345082496},
{"_id":{"$oid":"574c7fee4721a88591027750"},"id":"5008","coords":{"coordinates":[-71.118233,42.421421],"type":"Point"},"name":"300 Winthrop St","neighs":["6299","6298","9150"],"routes":["101"],"node":"5008","rank":0.6578012280677181},
{"_id":{"$oid":"574c7fee4721a885910277b2"},"id":"6298","coords":{"coordinates":[-71.119896,42.420837],"type":"Point"},"name":"High St @ Essex St","neighs":["6300","9150","6299","5008"],"routes":["101"],"node":"6298","rank":0.8311836257844859},
{"_id":{"$oid":"574c7fee4721a885910277b3"},"id":"6299","coords":{"coordinates":[-71.123215,42.421844],"type":"Point"},"name":"High St @ Woburn St","neighs":["6302","5008","9149","9150","6300","6301","6298"],"routes":["101"],"node":"6299","rank":1.3421336377411168},
{"_id":{"$oid":"574c7fee4721a885910277b4"},"id":"6300","coords":{"coordinates":[-71.124855,42.421768],"type":"Point"},"name":"High St @ Wolcott St","neighs":["6298","9149","9150","6302","6301","6299"],"routes":["101"],"node":"6300","rank":1.1550009706512816},
{"_id":{"$oid":"574c7fee4721a885910277b5"},"id":"6301","coords":{"coordinates":[-71.126236,42.421753],"type":"Point"},"name":"High St @ Mystic St","neighs":["9150","9149","6303","6299","6302","6300"],"routes":["101"],"node":"6301","rank":1.1318570771654515},
{"_id":{"$oid":"574c7fee4721a885910277b6"},"id":"6302","coords":{"coordinates":[-71.128746,42.421547],"type":"Point"},"name":"High St @ Allston St","neighs":["6299","2371","6300","2370","6301","6303","16304"],"routes":["101"],"node":"6302","rank":1.2467746457915354},
{"_id":{"$oid":"574c7fee4721a885910277b7"},"id":"6303","coords":{"coordinates":[-71.131195,42.421104],"type":"Point"},"name":"High St @ Warren St - W Medford Sq","neighs":["3513","2371","6301","16304","2369","2370","6302"],"routes":["101"],"node":"6303","rank":1.2391409856916358},
{"_id":{"$oid":"574c7fee4721a885910276ac"},"id":"16304","coords":{"coordinates":[-71.132973,42.42128],"type":"Point"},"name":"High St opp Harvard Ave","neighs":["2371","6302","2370","2369","3513","6303"],"routes":["101"],"node":"16304","rank":1.0767613103376596},
{"_id":{"$oid":"574c7fee4721a88591027730"},"id":"3513","coords":{"coordinates":[-71.136955,42.421062],"type":"Point"},"name":"Boston Ave @ High St","neighs":["6303","2370","2369","16304"],"routes":["101"],"node":"3513","rank":0.7612831322253616},
{"_id":{"$oid":"574c7fee4721a885910276c1"},"id":"2369","coords":{"coordinates":[-71.134659,42.419785],"type":"Point"},"name":"Boston Ave @ Harvard St","neighs":["2371","6303","16304","2370","3513"],"routes":["101"],"node":"2369","rank":0.9213406022494585},
{"_id":{"$oid":"574c7fee4721a885910276c2"},"id":"2370","coords":{"coordinates":[-71.133102,42.418888],"type":"Point"},"name":"Boston Ave @ Holton St","neighs":["3513","2372","6303","16304","2371","6302","2369"],"routes":["101"],"node":"2370","rank":1.254837405885052},
{"_id":{"$oid":"574c7fee4721a885910276c3"},"id":"2371","coords":{"coordinates":[-71.131531,42.417908],"type":"Point"},"name":"Boston Ave @ Arlington St","neighs":["2373","16304","2372","6303","2369","6302","2370"],"routes":["101"],"node":"2371","rank":1.276710887424663},
{"_id":{"$oid":"574c7fee4721a885910276c4"},"id":"2372","coords":{"coordinates":[-71.129318,42.416435],"type":"Point"},"name":"Boston Ave @ Mystic Valley Pkwy","neighs":["2370","2373","2374","2371"],"routes":["101"],"node":"2372","rank":0.8369539212874754},
{"_id":{"$oid":"574c7fee4721a885910276c5"},"id":"2373","coords":{"coordinates":[-71.127823,42.415455],"type":"Point"},"name":"Boston Ave @ Stoughton St","neighs":["2375","2371","2374","2372"],"routes":["101"],"node":"2373","rank":0.8751287278504113},
{"_id":{"$oid":"574c7fee4721a885910276c6"},"id":"2374","coords":{"coordinates":[-71.125938,42.4142],"type":"Point"},"name":"Boston Ave @ North St","neighs":["21411","2372","2375","2373"],"routes":["101"],"node":"2374","rank":0.9099104724986545},
{"_id":{"$oid":"574c7fee4721a885910276c7"},"id":"2375","coords":{"coordinates":[-71.123932,42.412876],"type":"Point"},"name":"Boston Ave @ Hillsdale Rd","neighs":["2373","21411","5038","2374"],"routes":["101"],"node":"2375","rank":0.9326267332393581},
{"_id":{"$oid":"574c7fee4721a885910276bc"},"id":"21411","coords":{"coordinates":[-71.120445,42.413403],"type":"Point"},"name":"Winthrop St @ Chester Ave","neighs":["15038","2374","5038","2375"],"routes":["101"],"node":"21411","rank":0.9261998341577783},
{"_id":{"$oid":"574c7fee4721a88591027755"},"id":"5038","coords":{"coordinates":[-71.119797,42.414169],"type":"Point"},"name":"George St @ Winthrop St","neighs":["2375","15038","21411"],"routes":["101"],"node":"5038","rank":0.7241721439429982},
{"_id":{"$oid":"574c7fee4721a885910276a8"},"id":"15038","coords":{"coordinates":[-71.116524,42.412849],"type":"Point"},"name":"George St @ Burget Ave","neighs":["5040","5291","21411","5039","5038"],"routes":["101"],"node":"15038","rank":1.047112409999382},
{"_id":{"$oid":"574c7fee4721a88591027756"},"id":"5039","coords":{"coordinates":[-71.113762,42.411724],"type":"Point"},"name":"George St @ Wedgemere Rd","neighs":["5293","5292","5291","5040","15038"],"routes":["101"],"node":"5039","rank":0.9679263934976755},
{"_id":{"$oid":"574c7fee4721a88591027757"},"id":"5040","coords":{"coordinates":[-71.110725,42.41198],"type":"Point"},"name":"George St @ Main St","neighs":["15038","5293","5292","5291","5039"],"routes":["101"],"node":"5040","rank":0.9679263934976755},
{"_id":{"$oid":"574c7fee4721a88591027760"},"id":"5291","coords":{"coordinates":[-71.110641,42.411884],"type":"Point"},"name":"Main St @ George St","neighs":["15038","5039","5293","5292","5040"],"routes":["101"],"node":"5291","rank":0.9679263934976755},
{"_id":{"$oid":"574c7fee4721a88591027761"},"id":"5292","coords":{"coordinates":[-71.110016,42.409809],"type":"Point"},"name":"Main St @ Stearns Ave","neighs":["5295","5039","5294","5040","5293","5291"],"routes":["101"],"node":"5292","rank":1.1061803989489518},
{"_id":{"$oid":"574c7fee4721a88591027762"},"id":"5293","coords":{"coordinates":[-71.109482,42.408646],"type":"Point"},"name":"Main St @ Windsor Rd","neighs":["5039","5296","5291","5295","5040","5294","5292"],"routes":["101"],"node":"5293","rank":1.2593841628041285},
{"_id":{"$oid":"574c7fee4721a88591027763"},"id":"5294","coords":{"coordinates":[-71.108986,42.407532],"type":"Point"},"name":"Main St @ Wellesley St","neighs":["5297","5296","5295","5292","5293"],"routes":["101"],"node":"5294","rank":0.9071754536892228},
{"_id":{"$oid":"574c7fee4721a88591027764"},"id":"5295","coords":{"coordinates":[-71.108536,42.406376],"type":"Point"},"name":"Main St @ Princeton St","neighs":["5292","5297","5293","5296","5294"],"routes":["101"],"node":"5295","rank":0.9071754536892228},
{"_id":{"$oid":"574c7fee4721a88591027765"},"id":"5296","coords":{"coordinates":[-71.108025,42.405182],"type":"Point"},"name":"Main St @ Harvard St","neighs":["5293","5298","5297","5294","5295"],"routes":["101"],"node":"5296","rank":0.8780370409272847},
{"_id":{"$oid":"574c7fee4721a88591027766"},"id":"5297","coords":{"coordinates":[-71.1073,42.403599],"type":"Point"},"name":"Main St @ Marion St","neighs":["5294","5299","5295","5298","5296"],"routes":["101"],"node":"5297","rank":0.8424737192715832},
{"_id":{"$oid":"574c7fee4721a88591027767"},"id":"5298","coords":{"coordinates":[-71.106407,42.402073],"type":"Point"},"name":"Main St @ Medford St","neighs":["2735","5296","2734","5299","5300","5297"],"routes":["89","101"],"node":"5298","rank":0.8665522949933689},
{"_id":{"$oid":"574c7fee4721a88591027768"},"id":"5299","coords":{"coordinates":[-71.104599,42.400703],"type":"Point"},"name":"Main St @ Bow St","neighs":["2732","2733","5298","2734","5297","5300","2735"],"routes":["89","101"],"node":"5299","rank":0.9180983803044027},
{"_id":{"$oid":"574c7fee4721a88591027769"},"id":"5300","coords":{"coordinates":[-71.102196,42.39896],"type":"Point"},"name":"Main St @ Dexter St","neighs":["2735","2730","5302","5298","2734","2731","2733","2732","5301","5299"],"routes":["89","101"],"node":"5300","rank":1.1489720538187242},
{"_id":{"$oid":"574c7fee4721a8859102776a"},"id":"5301","coords":{"coordinates":[-71.100182,42.397537],"type":"Point"},"name":"Main St opp Henry St","neighs":["5303","2730","2733","2732","2734","2729","2731","5302","5300"],"routes":["89","101"],"node":"5301","rank":0.9776647349181494},
{"_id":{"$oid":"574c7fee4721a8859102776b"},"id":"5302","coords":{"coordinates":[-71.098763,42.396286],"type":"Point"},"name":"Main St opp Moreland St","neighs":["5300","2704","2733","2727","2732","2729","2731","2730","5303","5301"],"routes":["89","101"],"node":"5302","rank":1.047234593242962},
{"_id":{"$oid":"574c7fee4721a8859102776c"},"id":"5303","coords":{"coordinates":[-71.097725,42.395077],"type":"Point"},"name":"Main St @ Broadway","neighs":["2725","2704","5301","2732","2727","2726","2705","2731","2729","2730","5302"],"routes":["89","101"],"node":"5303","rank":1.10705688267564},
{"_id":{"$oid":"574c7fee4721a885910276f4"},"id":"2704","coords":{"coordinates":[-71.095924,42.393791],"type":"Point"},"name":"Broadway @ Thurston St","neighs":["2724","5302","2730","2706","2725","5303","2726","2729","2705","2727"],"routes":["89","101"],"node":"2704","rank":0.999569925238233},
{"_id":{"$oid":"574c7fee4721a885910276f5"},"id":"2705","coords":{"coordinates":[-71.093552,42.392555],"type":"Point"},"name":"Broadway opp Temple St","neighs":["2707","2727","2724","5303","2723","2726","2725","2706","2729","2704"],"routes":["89","101"],"node":"2705","rank":0.9901919880025853},
{"_id":{"$oid":"574c7fee4721a885910276f6"},"id":"2706","coords":{"coordinates":[-71.092804,42.392159],"type":"Point"},"name":"Broadway @ Marshall St","neighs":["2708","2704","2723","2726","2724","2725","2727","2707","2729","2705"],"routes":["89","101"],"node":"2706","rank":0.9897428272492644},
{"_id":{"$oid":"574c7fee4721a885910276f7"},"id":"2707","coords":{"coordinates":[-71.090263,42.390499],"type":"Point"},"name":"Broadway @ Montgomery Ave","neighs":["2722","2721","2705","2725","2709","2706","2724","2726","2710","2723","2708"],"routes":["89","101"],"node":"2707","rank":1.0866527988734884},
{"_id":{"$oid":"574c7fee4721a885910276f8"},"id":"2708","coords":{"coordinates":[-71.088631,42.389744],"type":"Point"},"name":"Broadway @ McGrath Hwy","neighs":["2725","2724","2706","2711","2722","2721","2723","2720","2710","2709","2707"],"routes":["89","101"],"node":"2708","rank":1.1003542712280168},
{"_id":{"$oid":"574c7fee4721a885910276f9"},"id":"2709","coords":{"coordinates":[-71.087677,42.389317],"type":"Point"},"name":"Broadway St @ MacArthur St","neighs":["2724","2711","2707","2721","2720","2722","2719","2723","2710","2708"],"routes":["89","101"],"node":"2709","rank":1.0253165060820346},
{"_id":{"$oid":"574c7fee4721a885910276fa"},"id":"2710","coords":{"coordinates":[-71.086105,42.388615],"type":"Point"},"name":"Broadway @ Cross St","neighs":["2707","2712","2708","2723","2720","2722","2721","2711","2718","2719","2709"],"routes":["89","101"],"node":"2710","rank":1.1397262677001243},
{"_id":{"$oid":"574c7fee4721a885910276fb"},"id":"2711","coords":{"coordinates":[-71.084328,42.387798],"type":"Point"},"name":"Broadway @ Glen St","neighs":["2708","2713","2709","2721","2722","2720","2718","2712","2719","2710"],"routes":["89","101"],"node":"2711","rank":1.0739957428507356},
{"_id":{"$oid":"574c7fee4721a885910276fc"},"id":"2712","coords":{"coordinates":[-71.082176,42.387062],"type":"Point"},"name":"Broadway @ Franklin St","neighs":["2721","2722","2714","2720","2711","2718","2710","2719","2713"],"routes":["89","101"],"node":"2712","rank":1.014927944350652},
{"_id":{"$oid":"574c7fee4721a885910276fd"},"id":"2713","coords":{"coordinates":[-71.080643,42.386631],"type":"Point"},"name":"Broadway @ Lincoln St","neighs":["2721","2874","2717","2719","place-sull","2711","2718","2720","2714","2712"],"routes":["105","86","89","orange","101"],"node":"2713","rank":1.233293075746011},
{"_id":{"$oid":"574c7fee4721a885910276fe"},"id":"2714","coords":{"coordinates":[-71.078667,42.386047],"type":"Point"},"name":"Broadway @ Mt Vernon St","neighs":["2777","2719","2712","2779","2874","2717","place-sull","2718","2713"],"routes":["86","105","89","orange","101"],"node":"2714","rank":1.2381968697237737},
{"_id":{"$oid":"574c7fee4721a8859102771c"},"id":"2874","coords":{"coordinates":[-71.076994,42.383975],"type":"Point"},"name":"Sullivan Station - Upper Busway","neighs":["5504","2713","2777","2779","2717","2718","place-sull","2714"],"routes":["105","89","86","orange","101"],"node":"2874","rank":1.2117399097208754},
{"_id":{"$oid":"574c7fee4721a8859102778d"},"id":"5504","coords":{"coordinates":[-71.072456,42.386021],"type":"Point"},"name":"Alford St @ Main St","neighs":["2717","5505","place-sull","2874"],"routes":["101","orange","86","89","105"],"node":"5504","rank":0.8224036230838732},
{"_id":{"$oid":"574c7fee4721a8859102778e"},"id":"5505","coords":{"coordinates":[-71.068779,42.392326],"type":"Point"},"name":"173 Alford St","neighs":["5506","5504"],"routes":["105"],"node":"5505","rank":0.6308523415284814},
{"_id":{"$oid":"574c7fee4721a8859102778f"},"id":"5506","coords":{"coordinates":[-71.067207,42.394295],"type":"Point"},"name":"Broadway @ Dexter St","neighs":["5507","5505"],"routes":["105"],"node":"5506","rank":0.7147325143752516},
{"_id":{"$oid":"574c7fee4721a88591027790"},"id":"5507","coords":{"coordinates":[-71.06498,42.396816],"type":"Point"},"name":"Broadway @ Thorndike St","neighs":["5508","5509","5506"],"routes":["105"],"node":"5507","rank":1.032606927393517},
{"_id":{"$oid":"574c7fee4721a88591027791"},"id":"5508","coords":{"coordinates":[-71.063011,42.398888],"type":"Point"},"name":"Broadway @ Langdon St","neighs":["5509","5507"],"routes":["105"],"node":"5508","rank":0.716087379244141},
{"_id":{"$oid":"574c7fee4721a88591027792"},"id":"5509","coords":{"coordinates":[-71.0616,42.400398],"type":"Point"},"name":"Broadway St @ Bartlett St","neighs":["5507","5405","5508"],"routes":["105"],"node":"5509","rank":0.9541884206403236},
{"_id":{"$oid":"574c7fee4721a88591027772"},"id":"5405","coords":{"coordinates":[-71.061264,42.404144],"type":"Point"},"name":"Main St @ Elmwood St","neighs":["5407","45406","5406","5509"],"routes":["105"],"node":"5405","rank":0.9585085819086433},
{"_id":{"$oid":"574c7fee4721a88591027773"},"id":"5406","coords":{"coordinates":[-71.061424,42.405094],"type":"Point"},"name":"Main St @ Oakes St","neighs":["5408","5407","45406","5405"],"routes":["105"],"node":"5406","rank":0.8793693953084009},
{"_id":{"$oid":"574c7fee4721a88591027743"},"id":"45406","coords":{"coordinates":[-71.062035,42.407089],"type":"Point"},"name":"Main St @ Winthrop St","neighs":["5405","5409","5408","5410","5407","5406"],"routes":["105"],"node":"45406","rank":1.2365157286766724},
{"_id":{"$oid":"574c7fee4721a88591027774"},"id":"5407","coords":{"coordinates":[-71.062073,42.407684],"type":"Point"},"name":"Main St @ Forest Ave","neighs":["5405","5406","5408","5409","5410","45406"],"routes":["105"],"node":"5407","rank":1.2365157286766724},
{"_id":{"$oid":"574c7fee4721a88591027775"},"id":"5408","coords":{"coordinates":[-71.062241,42.40905],"type":"Point"},"name":"Main St @ Baldwin Ave","neighs":["5406","5409","5410","45406","5407"],"routes":["105"],"node":"5408","rank":1.032350118871963},
{"_id":{"$oid":"574c7fee4721a88591027776"},"id":"5409","coords":{"coordinates":[-71.062416,42.410248],"type":"Point"},"name":"Main St @ Clark St","neighs":["5410","45406","5411","5407","5408"],"routes":["105"],"node":"5409","rank":1.0263809681813412},
{"_id":{"$oid":"574c7fee4721a88591027777"},"id":"5410","coords":{"coordinates":[-71.06279,42.411381],"type":"Point"},"name":"Main St @ Dyer Ave","neighs":["5412","5409","5408","5407","5411","45406"],"routes":["105"],"node":"5410","rank":1.2085677416216876},
{"_id":{"$oid":"574c7fee4721a88591027778"},"id":"5411","coords":{"coordinates":[-71.063484,42.413498],"type":"Point"},"name":"Main St @ Bradford St","neighs":["5413","5412","5409","5410"],"routes":["105"],"node":"5411","rank":0.8463600918827718},
{"_id":{"$oid":"574c7fee4721a88591027779"},"id":"5412","coords":{"coordinates":[-71.064163,42.414814],"type":"Point"},"name":"Main St @ Bellingham Ave","neighs":["5410","5413","5414","5411"],"routes":["105"],"node":"5412","rank":0.8419175052788181},
{"_id":{"$oid":"574c7fee4721a8859102777a"},"id":"5413","coords":{"coordinates":[-71.065277,42.416908],"type":"Point"},"name":"Main St @ Clarendon St","neighs":["5416","5415","5411","5414","5412"],"routes":["105"],"node":"5413","rank":1.0110162644566103},
{"_id":{"$oid":"574c7fee4721a8859102777b"},"id":"5414","coords":{"coordinates":[-71.065338,42.418633],"type":"Point"},"name":"Cross St @ Main St","neighs":["5417","5416","5415","5412","5413"],"routes":["105"],"node":"5414","rank":0.9933307189702018},
{"_id":{"$oid":"574c7fee4721a8859102777c"},"id":"5415","coords":{"coordinates":[-71.063049,42.419323],"type":"Point"},"name":"Cross St @ Stevens St","neighs":["5413","5417","5418","5416","5414"],"routes":["105"],"node":"5415","rank":0.9791071640779254},
{"_id":{"$oid":"574c7fee4721a8859102777d"},"id":"5416","coords":{"coordinates":[-71.061272,42.420124],"type":"Point"},"name":"Cross St @ Pratt St","neighs":["5413","5415","5418","5414","5417"],"routes":["105"],"node":"5416","rank":0.9791071640779254},
{"_id":{"$oid":"574c7fee4721a8859102777e"},"id":"5417","coords":{"coordinates":[-71.060043,42.420746],"type":"Point"},"name":"Cross St @ Walnut St","neighs":["5414","5418","5419","5415","5416"],"routes":["105"],"node":"5417","rank":0.9354907387177789},
{"_id":{"$oid":"574c7fee4721a8859102777f"},"id":"5418","coords":{"coordinates":[-71.058533,42.421795],"type":"Point"},"name":"Cross St @ Ferry St","neighs":["5415","5416","5419","5417"],"routes":["105"],"node":"5418","rank":0.7633131146701273},
{"_id":{"$oid":"574c7fee4721a88591027780"},"id":"5419","coords":{"coordinates":[-71.056107,42.423737],"type":"Point"},"name":"Cross St @ Henry St","neighs":["5430","5422","5427","5417","5428","45428","5429","5421","5420","5418"],"routes":["105"],"node":"5419","rank":1.4238376962483676},
{"_id":{"$oid":"574c7fee4721a88591027781"},"id":"5420","coords":{"coordinates":[-71.053688,42.424915],"type":"Point"},"name":"Opp 314 Bryant St @ Suffolk Manor","neighs":["5423","5426","5422","45428","5425","5428","5427","5429","5421","5419"],"routes":["105"],"node":"5420","rank":1.3392411111428486},
{"_id":{"$oid":"574c7fee4721a88591027782"},"id":"5421","coords":{"coordinates":[-71.052559,42.424061],"type":"Point"},"name":"Bryant St @ Harvard St","neighs":["5426","45428","5423","5428","5425","5427","5424","5422","5419","5420"],"routes":["105"],"node":"5421","rank":1.3540009677677411},
{"_id":{"$oid":"574c7fee4721a88591027783"},"id":"5422","coords":{"coordinates":[-71.050697,42.422974],"type":"Point"},"name":"Newland St @ Bryant St","neighs":["5425","5419","5420","5424","5423","5421"],"routes":["105"],"node":"5422","rank":0.8810469567594801},
{"_id":{"$oid":"574c7fee4721a88591027784"},"id":"5423","coords":{"coordinates":[-71.047966,42.424026],"type":"Point"},"name":"218 Newland St","neighs":["5420","5425","5421","5424","5422"],"routes":["105"],"node":"5423","rank":0.756371804574265},
{"_id":{"$oid":"574c7fee4721a88591027785"},"id":"5424","coords":{"coordinates":[-71.047188,42.424946],"type":"Point"},"name":"172 Bowdoin St","neighs":["5422","5425","5421","5423"],"routes":["105"],"node":"5424","rank":0.6361136167027356},
{"_id":{"$oid":"574c7fee4721a88591027786"},"id":"5425","coords":{"coordinates":[-71.049416,42.426571],"type":"Point"},"name":"Bowdoin St opp Harvard St","neighs":["5420","5421","5423","5428","5427","5426","5422","5424"],"routes":["105"],"node":"5425","rank":1.1133250532422074},
{"_id":{"$oid":"574c7fee4721a88591027787"},"id":"5426","coords":{"coordinates":[-71.051514,42.428146],"type":"Point"},"name":"Bowdoin St @ Willow St","neighs":["5429","5421","5420","45428","5425","5428","5427"],"routes":["105"],"node":"5426","rank":0.9622540333253536},
{"_id":{"$oid":"574c7fee4721a88591027788"},"id":"5427","coords":{"coordinates":[-71.052849,42.427341],"type":"Point"},"name":"Willow St @ Lyme St","neighs":["5429","5421","45428","5425","5428","5419","5420","5426"],"routes":["105"],"node":"5427","rank":1.0847517151082315},
{"_id":{"$oid":"574c7fee4721a88591027789"},"id":"5428","coords":{"coordinates":[-71.054703,42.427551],"type":"Point"},"name":"Lyme St @ Cross St","neighs":["5430","5419","5420","5426","5425","5427","45428","5421","5429"],"routes":["105"],"node":"5428","rank":1.2184971674381324},
{"_id":{"$oid":"574c7fee4721a88591027744"},"id":"45428","coords":{"coordinates":[-71.055717,42.42728],"type":"Point"},"name":"Lyme St @ Bryant St","neighs":["5426","5430","5419","5420","5428","5427","5421","5429"],"routes":["105"],"node":"45428","rank":1.0987194227388986},
{"_id":{"$oid":"574c7fee4721a8859102778a"},"id":"5429","coords":{"coordinates":[-71.057434,42.427994],"type":"Point"},"name":"420 Eastern Ave","neighs":["5426","5419","5420","5428","5427","5430","45428"],"routes":["105"],"node":"5429","rank":0.9813697441518375},
{"_id":{"$oid":"574c7fee4721a8859102778b"},"id":"5430","coords":{"coordinates":[-71.059937,42.426842],"type":"Point"},"name":"Eastern Ave @ Franklin St","neighs":["5419","5428","5431","45428","5429"],"routes":["105"],"node":"5430","rank":0.7865116031378682},
{"_id":{"$oid":"574c7fee4721a8859102778c"},"id":"5431","coords":{"coordinates":[-71.063652,42.425026],"type":"Point"},"name":"Eastern Ave @ Phillips Ct","neighs":["5366","9215","5342","5365","5430"],"routes":["105"],"node":"5431","rank":0.9717317375768544},
{"_id":{"$oid":"574c7fee4721a8859102776f"},"id":"5365","coords":{"coordinates":[-71.067215,42.423386],"type":"Point"},"name":"Eastern Ave @ Main St","neighs":["9215","5342","5366","5431"],"routes":["105"],"node":"5365","rank":0.8274931023663582},
{"_id":{"$oid":"574c7fee4721a88591027770"},"id":"5366","coords":{"coordinates":[-71.06768,42.425098],"type":"Point"},"name":"Main St @ Centre St","neighs":["5369","5431","5342","9215","19215","5365"],"routes":["105"],"node":"5366","rank":1.2044396726829434},
{"_id":{"$oid":"574c7fee4721a8859102776e"},"id":"5342","coords":{"coordinates":[-71.067352,42.426167],"type":"Point"},"name":"Main St opp Pleasant St","neighs":["5369","5431","5365","9215","19215","5366"],"routes":["105"],"node":"5342","rank":1.2044396726829434},
{"_id":{"$oid":"574c7fee4721a885910277f0"},"id":"9215","coords":{"coordinates":[-71.066963,42.427578],"type":"Point"},"name":"Main St @ Salem St","neighs":["5365","5431","5369","5342","5366","19215"],"routes":["105"],"node":"9215","rank":1.2044396726829434},
{"_id":{"$oid":"574c7fee4721a885910276b3"},"id":"19215","coords":{"coordinates":[-71.067963,42.42868],"type":"Point"},"name":"Florence St @ Ramsdell Rd","neighs":["5342","5366","5369","9215"],"routes":["105"],"node":"19215","rank":0.8528402447825512},
{"_id":{"$oid":"574c7fee4721a88591027771"},"id":"5369","coords":{"coordinates":[-71.071159,42.42865],"type":"Point"},"name":"Florence St @ Washington St","neighs":["place-mlmnl","5342","9215","53270","5366","19215"],"routes":["orange","105"],"node":"5369","rank":1.3440493683268626},
{"_id":{"$oid":"574c7fee4721a8859102776d"},"id":"53270","coords":{"coordinates":[-71.07411,42.426632],"type":"Point"},"name":"Malden Ctr Sta East Busway Bay","neighs":["place-mlmnl","5369"],"routes":["orange","105"],"node":"53270","rank":0.5909089081888076},
{"_id":{"$oid":"574c7fee4721a88591027797"},"id":"5740","coords":{"coordinates":[-71.03952958,42.36911856],"type":"Point"},"name":"Maverick Station","neighs":["place-mvbcl","5742"],"routes":["blue","116"],"node":"5740","rank":0.7733564399766959},
{"_id":{"$oid":"574c7fee4721a88591027798"},"id":"5742","coords":{"coordinates":[-71.038956,42.372501],"type":"Point"},"name":"Meridian St @ Havre St","neighs":["place-mvbcl","5743","5740"],"routes":["blue","116"],"node":"5742","rank":1.1152457046902184},
{"_id":{"$oid":"574c7fee4721a88591027799"},"id":"5743","coords":{"coordinates":[-71.039032,42.37571],"type":"Point"},"name":"Meridian St @ Saratoga St","neighs":["5745","5742"],"routes":["116"],"node":"5743","rank":0.7783057304097362},
{"_id":{"$oid":"574c7fee4721a8859102779a"},"id":"5745","coords":{"coordinates":[-71.039108,42.378765],"type":"Point"},"name":"Meridian St @ Eutaw St","neighs":["5747","5746","5743"],"routes":["116"],"node":"5745","rank":1.0954738189873328},
{"_id":{"$oid":"574c7fee4721a8859102779b"},"id":"5746","coords":{"coordinates":[-71.039185,42.380444],"type":"Point"},"name":"Meridian St @ White St","neighs":["5747","5745"],"routes":["116"],"node":"5746","rank":0.7550770276216862},
{"_id":{"$oid":"574c7fee4721a8859102779c"},"id":"5747","coords":{"coordinates":[-71.039185,42.38208],"type":"Point"},"name":"Meridian St @ Falcon St","neighs":["5745","5748","5746"],"routes":["116"],"node":"5747","rank":1.0337651291801837},
{"_id":{"$oid":"574c7fee4721a8859102779d"},"id":"5748","coords":{"coordinates":[-71.038574,42.387939],"type":"Point"},"name":"Pearl St @ Marginal St","neighs":["5614","5749","5747"],"routes":["116"],"node":"5748","rank":0.8838501072624736},
{"_id":{"$oid":"574c7fee4721a8859102779e"},"id":"5749","coords":{"coordinates":[-71.037621,42.389439],"type":"Point"},"name":"Pearl St @ Essex St","neighs":["5615","5614","5748"],"routes":["116"],"node":"5749","rank":0.803863603438436},
{"_id":{"$oid":"574c7fee4721a88591027793"},"id":"5614","coords":{"coordinates":[-71.035553,42.390263],"type":"Point"},"name":"Park St @ Hawthorne St","neighs":["5617","5748","5615","5749"],"routes":["116"],"node":"5614","rank":1.001341595719287},
{"_id":{"$oid":"574c7fee4721a88591027794"},"id":"5615","coords":{"coordinates":[-71.034126,42.392517],"type":"Point"},"name":"Hawthorne St @ Broadway","neighs":["5617","5749","5750","5751","5614"],"routes":["116"],"node":"5615","rank":1.1210590998088565},
{"_id":{"$oid":"574c7fee4721a88591027795"},"id":"5617","coords":{"coordinates":[-71.032967,42.393368],"type":"Point"},"name":"Broadway @ Shurtleff St","neighs":["35751","5615","5751","5614","5750"],"routes":["116"],"node":"5617","rank":1.0748630781481212},
{"_id":{"$oid":"574c7fee4721a8859102779f"},"id":"5750","coords":{"coordinates":[-71.031113,42.394394],"type":"Point"},"name":"Broadway @ Gerrish Ave","neighs":["35751","5751","5615","5752","5617"],"routes":["116"],"node":"5750","rank":1.0388967062294676},
{"_id":{"$oid":"574c7fee4721a885910277a0"},"id":"5751","coords":{"coordinates":[-71.029701,42.395195],"type":"Point"},"name":"Broadway @ Crescent Ave","neighs":["5753","5617","5752","35751","5615","5750"],"routes":["116"],"node":"5751","rank":1.215474027473005},
{"_id":{"$oid":"574c7fee4721a88591027732"},"id":"35751","coords":{"coordinates":[-71.028557,42.395844],"type":"Point"},"name":"Broadway @ Cary Ave","neighs":["5753","5617","5752","5750","5751"],"routes":["116"],"node":"35751","rank":1.023329300596163},
{"_id":{"$oid":"574c7fee4721a885910277a1"},"id":"5752","coords":{"coordinates":[-71.026978,42.396748],"type":"Point"},"name":"Broadway @ Parker St","neighs":["5755","5750","5754","5751","5753","35751"],"routes":["116"],"node":"5752","rank":1.2065403039714042},
{"_id":{"$oid":"574c7fee4721a885910277a2"},"id":"5753","coords":{"coordinates":[-71.025368,42.397644],"type":"Point"},"name":"Broadway @ Eleanor St","neighs":["5756","5751","35751","5755","5754","5752"],"routes":["116"],"node":"5753","rank":1.2175613792079645},
{"_id":{"$oid":"574c7fee4721a885910277a3"},"id":"5754","coords":{"coordinates":[-71.023636,42.398643],"type":"Point"},"name":"Broadway @ Green St","neighs":["5757","5756","5755","5752","5753"],"routes":["116"],"node":"5754","rank":1.0680562891644598},
{"_id":{"$oid":"574c7fee4721a885910277a4"},"id":"5755","coords":{"coordinates":[-71.022392,42.399559],"type":"Point"},"name":"Broadway @ Webster Ave","neighs":["5752","5756","5757","5753","5754"],"routes":["116"],"node":"5755","rank":1.0680562891644598},
{"_id":{"$oid":"574c7fee4721a885910277a5"},"id":"5756","coords":{"coordinates":[-71.021095,42.4007],"type":"Point"},"name":"Broadway @ Stockton St","neighs":["5754","5753","5757","5755"],"routes":["116"],"node":"5756","rank":0.8899148534472466},
{"_id":{"$oid":"574c7fee4721a885910277a6"},"id":"5757","coords":{"coordinates":[-71.019775,42.401855],"type":"Point"},"name":"Broadway @ Cabot St","neighs":["5754","5755","5759","5756"],"routes":["116"],"node":"5757","rank":0.9656917403492373},
{"_id":{"$oid":"574c7fee4721a885910277a7"},"id":"5759","coords":{"coordinates":[-71.016174,42.40498],"type":"Point"},"name":"Broadway @ Taft St","neighs":["5761","5760","5757"],"routes":["116"],"node":"5759","rank":0.9305061753344591},
{"_id":{"$oid":"574c7fee4721a885910277a8"},"id":"5760","coords":{"coordinates":[-71.014572,42.406376],"type":"Point"},"name":"Broadway @ Herman St","neighs":["5761","5759"],"routes":["116"],"node":"5760","rank":0.6939596289257615},
{"_id":{"$oid":"574c7fee4721a885910277a9"},"id":"5761","coords":{"coordinates":[-71.01329,42.408443],"type":"Point"},"name":"Broadway @ Pleasant St","neighs":["5759","5763","5760"],"routes":["116"],"node":"5761","rank":0.9856195187266613},
{"_id":{"$oid":"574c7fee4721a885910277aa"},"id":"5763","coords":{"coordinates":[-71.011627,42.411045],"type":"Point"},"name":"Broadway opp Fernwood Ave","neighs":["35765","5765","5761"],"routes":["116"],"node":"5763","rank":0.9718234763584817},
{"_id":{"$oid":"574c7fee4721a885910277ab"},"id":"5765","coords":{"coordinates":[-71.009979,42.413555],"type":"Point"},"name":"Broadway opp Elmwood Ave","neighs":["5768","35765","5763"],"routes":["116"],"node":"5765","rank":0.9563718791158218},
{"_id":{"$oid":"574c7fee4721a88591027733"},"id":"35765","coords":{"coordinates":[-71.009178,42.414841],"type":"Point"},"name":"Broadway @ True St","neighs":["5763","5768","5765"],"routes":["116"],"node":"35765","rank":0.9563718791158218},
{"_id":{"$oid":"574c7fee4721a885910277ac"},"id":"5768","coords":{"coordinates":[-71.005722,42.416595],"type":"Point"},"name":"Revere St @ Lee St","neighs":["5765","5771","5770","35765"],"routes":["116"],"node":"5768","rank":1.2207006213870737},
{"_id":{"$oid":"574c7fee4721a885910277ad"},"id":"5770","coords":{"coordinates":[-71.001755,42.416454],"type":"Point"},"name":"Revere St @ Stowers St","neighs":["35772","5771","5768"],"routes":["116"],"node":"5770","rank":0.9342389843077069},
{"_id":{"$oid":"574c7fee4721a885910277ae"},"id":"5771","coords":{"coordinates":[-71.000587,42.417465],"type":"Point"},"name":"235 Revere St opp Breed St","neighs":["5768","35772","5770"],"routes":["116"],"node":"5771","rank":0.9342389843077069},
{"_id":{"$oid":"574c7fee4721a88591027734"},"id":"35772","coords":{"coordinates":[-70.997658,42.418438],"type":"Point"},"name":"Revere St @ Hawes St","neighs":["5770","35773","5774","5771"],"routes":["116"],"node":"35772","rank":1.2258871585953417},
{"_id":{"$oid":"574c7fee4721a88591027735"},"id":"35773","coords":{"coordinates":[-70.994629,42.418533],"type":"Point"},"name":"Revere St @ Michael Della Russo Way","neighs":["4715","5774","35772"],"routes":["116"],"node":"35773","rank":0.9670107556991945},
{"_id":{"$oid":"574c7fee4721a885910277af"},"id":"5774","coords":{"coordinates":[-70.992722,42.418575],"type":"Point"},"name":"Revere St @ Sagamore St","neighs":["35772","4715","35773"],"routes":["116"],"node":"5774","rank":0.9670107556991945},
{"_id":{"$oid":"574c7fee4721a88591027747"},"id":"4715","coords":{"coordinates":[-70.991142,42.417034],"type":"Point"},"name":"N Shore Rd @ Agawam St","neighs":["place-wondl","35773","15795","5774"],"routes":["blue","116"],"node":"4715","rank":1.3318518557388714},
{"_id":{"$oid":"574c7fee4721a885910276aa"},"id":"15795","coords":{"coordinates":[-70.991648,42.41342],"type":"Point"},"name":"Wonderland West Busway","neighs":["place-wondl","4715"],"routes":["blue","116"],"node":"15795","rank":0.749458929141186},
{"_id":{"$oid":"574c7fee4721a885910277e6"},"id":"875","coords":{"coordinates":[-71.113686,42.300523],"type":"Point"},"name":"Forest Hills Station Lower Busway","neighs":["8750","place-forhl","1936","520"],"routes":["orange","39","16"],"node":"875","rank":1.045713108166884},
{"_id":{"$oid":"574c7fee4721a8859102775a"},"id":"520","coords":{"coordinates":[-71.11171,42.301151],"type":"Point"},"name":"Arborway @ Washington St","neighs":["1936","8750","875","place-forhl","521"],"routes":["orange","39","16"],"node":"520","rank":1.3285660123348868},
{"_id":{"$oid":"574c7fee4721a8859102775e"},"id":"521","coords":{"coordinates":[-71.107368,42.300564],"type":"Point"},"name":"Arborway @ Shea Circle","neighs":["522","520"],"routes":["16"],"node":"521","rank":0.6777487847424174},
{"_id":{"$oid":"574c7fee4721a8859102775f"},"id":"522","coords":{"coordinates":[-71.102356,42.300781],"type":"Point"},"name":"Circuit Dr @ Shattuck Hospital","neighs":["10522","521"],"routes":["16"],"node":"522","rank":0.703364800653899},
{"_id":{"$oid":"574c7fee4721a88591027661"},"id":"10522","coords":{"coordinates":[-71.094681,42.305103],"type":"Point"},"name":"Circuit Dr @ Glen Ln","neighs":["2922","522"],"routes":["16"],"node":"10522","rank":0.6289680884149129},
{"_id":{"$oid":"574c7fee4721a88591027721"},"id":"2922","coords":{"coordinates":[-71.08667,42.301807],"type":"Point"},"name":"Glen Ln @ Blue Hill Ave - Franklin Park Zoo","neighs":["2924","2904","2923","10522"],"routes":["16"],"node":"2922","rank":0.8327809648889337},
{"_id":{"$oid":"574c7fee4721a88591027722"},"id":"2923","coords":{"coordinates":[-71.084648,42.302692],"type":"Point"},"name":"Old Rd @ Ellington St","neighs":["2925","472","2922","468","2924","2904"],"routes":["23","16"],"node":"2923","rank":1.00471457697126},
{"_id":{"$oid":"574c7fee4721a8859102771d"},"id":"2904","coords":{"coordinates":[-71.083527,42.303375],"type":"Point"},"name":"Columbia Rd. @ Wolcott","neighs":["472","2925","2923","475","2922","468","2924"],"routes":["23","16"],"node":"2904","rank":1.1498134003028797},
{"_id":{"$oid":"574c7fee4721a88591027723"},"id":"2924","coords":{"coordinates":[-71.082123,42.304184],"type":"Point"},"name":"Columbia Rd @ Seaver St","neighs":["471","2922","475","468","2926","2925","472","2923","2904"],"routes":["23","16"],"node":"2924","rank":1.437414073426433},
{"_id":{"$oid":"574c7fee4721a88591027724"},"id":"2925","coords":{"coordinates":[-71.080254,42.305401],"type":"Point"},"name":"Columbia Rd @ Washington St","neighs":["2923","2904","471","472","2926","2928","475","468","2924"],"routes":["23","16"],"node":"2925","rank":1.4170706144143217},
{"_id":{"$oid":"574c7fee4721a88591027725"},"id":"2926","coords":{"coordinates":[-71.078041,42.306049],"type":"Point"},"name":"Columbia Rd @ Geneva Ave","neighs":["471","2924","472","2929","2925","475","468","2928"],"routes":["23","16"],"node":"2926","rank":1.3054603354847767},
{"_id":{"$oid":"574c7fee4721a88591027726"},"id":"2928","coords":{"coordinates":[-71.07576,42.307552],"type":"Point"},"name":"Columbia Rd @ Devon St","neighs":["468","2930","2925","2929","2926"],"routes":["23","16"],"node":"2928","rank":0.9147574501873548},
{"_id":{"$oid":"574c7fee4721a88591027727"},"id":"2929","coords":{"coordinates":[-71.07373,42.309063],"type":"Point"},"name":"Columbia Rd @ Intervale St","neighs":["2926","2931","2930","2928"],"routes":["16"],"node":"2929","rank":0.8211653153514948},
{"_id":{"$oid":"574c7fee4721a88591027728"},"id":"2930","coords":{"coordinates":[-71.072044,42.310127],"type":"Point"},"name":"Columbia Rd @ Hamilton St","neighs":["2932","2931","2928","2929"],"routes":["16"],"node":"2930","rank":0.8697002373936863},
{"_id":{"$oid":"574c7fee4721a88591027729"},"id":"2931","coords":{"coordinates":[-71.070076,42.31118],"type":"Point"},"name":"Columbia Rd @ Quincy St","neighs":["12932","2929","2932","2930"],"routes":["16"],"node":"2931","rank":0.9059811187108494},
{"_id":{"$oid":"574c7fee4721a8859102772a"},"id":"2932","coords":{"coordinates":[-71.068184,42.312836],"type":"Point"},"name":"Columbia Rd @ Glendale St","neighs":["1480","12932","2930","2931"],"routes":["16"],"node":"2932","rank":0.9277937150643922},
{"_id":{"$oid":"574c7fee4721a88591027683"},"id":"12932","coords":{"coordinates":[-71.067215,42.314491],"type":"Point"},"name":"Columbia Rd @ Bird St","neighs":["2931","2933","1480","2932"],"routes":["16"],"node":"12932","rank":0.9371633229838993},
{"_id":{"$oid":"574c7fee4721a885910276a7"},"id":"1480","coords":{"coordinates":[-71.065765,42.316364],"type":"Point"},"name":"Columbia Rd @ Hancock St","neighs":["2932","2934","2933","12932"],"routes":["16"],"node":"1480","rank":0.9446147720697019},
{"_id":{"$oid":"574c7fee4721a8859102772b"},"id":"2933","coords":{"coordinates":[-71.064812,42.317028],"type":"Point"},"name":"Columbia Rd @ Stoughton St","neighs":["124","1480","12932","2935","2934"],"routes":["16"],"node":"2933","rank":1.1530012088573856},
{"_id":{"$oid":"574c7fee4721a8859102772c"},"id":"2934","coords":{"coordinates":[-71.063438,42.318447],"type":"Point"},"name":"Columbia Rd @ Annabel St","neighs":["1480","124","2935","2933"],"routes":["16"],"node":"2934","rank":0.948169677274936},
{"_id":{"$oid":"574c7fee4721a8859102772d"},"id":"2935","coords":{"coordinates":[-71.0616,42.320255],"type":"Point"},"name":"Columbia Rd @ Massachusetts Ave","neighs":["125","124","2933","2934"],"routes":["16"],"node":"2935","rank":0.9430898522841572},
{"_id":{"$oid":"574c7fee4721a8859102767f"},"id":"124","coords":{"coordinates":[-71.061569,42.320621],"type":"Point"},"name":"Massachusetts Ave @ Columbia Rd","neighs":["125","2933","2934","2935"],"routes":["16"],"node":"124","rank":0.9430898522841572},
{"_id":{"$oid":"574c7fee4721a88591027680"},"id":"125","coords":{"coordinates":[-71.063942,42.323479],"type":"Point"},"name":"Massachusetts Ave @ Clapp St","neighs":["2935","29051","29050","126","124"],"routes":["16"],"node":"125","rank":1.145718247832958},
{"_id":{"$oid":"574c7fee4721a88591027682"},"id":"126","coords":{"coordinates":[-71.064919,42.324657],"type":"Point"},"name":"Massachusetts Ave @ Allstate Rd","neighs":["29051","29050","125"],"routes":["16"],"node":"126","rank":0.7321521361652892},
{"_id":{"$oid":"574c7fee4721a8859102771e"},"id":"29050","coords":{"coordinates":[-71.064514,42.326355],"type":"Point"},"name":"South Bay Mall @ Stop and Shop","neighs":["29052","125","29051","126"],"routes":["16"],"node":"29050","rank":0.9366267501705935},
{"_id":{"$oid":"574c7fee4721a8859102771f"},"id":"29051","coords":{"coordinates":[-71.061577,42.327427],"type":"Point"},"name":"South Bay Mall @ Office Max","neighs":["125","13","place-andrw","126","29050","29052"],"routes":["red","16"],"node":"29051","rank":1.3327872969852907},
{"_id":{"$oid":"574c7fee4721a88591027720"},"id":"29052","coords":{"coordinates":[-71.061722,42.329971],"type":"Point"},"name":"South Bay Mall @ Target","neighs":["29050","place-andrw","13","29051"],"routes":["red","16"],"node":"29052","rank":0.9234197973352986},
{"_id":{"$oid":"574c7fee4721a88591027684"},"id":"13","coords":{"coordinates":[-71.057655,42.330154],"type":"Point"},"name":"Andrew Station Busway","neighs":["35201","29051","place-andrw","5201","29052"],"routes":["red","16"],"node":"13","rank":1.1287327312980064},
{"_id":{"$oid":"574c7fee4721a8859102775b"},"id":"5201","coords":{"coordinates":[-71.052933,42.32925],"type":"Point"},"name":"Preble St @ Old Colony Ave","neighs":["5202","place-andrw","35201","13"],"routes":["red","16"],"node":"5201","rank":0.9500376920923054},
{"_id":{"$oid":"574c7fee4721a88591027731"},"id":"35201","coords":{"coordinates":[-71.052689,42.328495],"type":"Point"},"name":"Old Colony Ave @ McDonough Way","neighs":["13","5203","5202","place-andrw","5201"],"routes":["red","16"],"node":"35201","rank":1.166891173966057},
{"_id":{"$oid":"574c7fee4721a8859102775c"},"id":"5202","coords":{"coordinates":[-71.052635,42.327187],"type":"Point"},"name":"Old Colony Ave @ Gavin Way","neighs":["5203","5201","35201"],"routes":["16"],"node":"5202","rank":0.7631212653691628},
{"_id":{"$oid":"574c7fee4721a8859102775d"},"id":"5203","coords":{"coordinates":[-71.052513,42.324448],"type":"Point"},"name":"Old Colony Ave @ Msgr O'Callaghan Way","neighs":["35201","place-jfk","121","5202"],"routes":["red","16"],"node":"5203","rank":1.007322958254723},
{"_id":{"$oid":"574c7fee4721a8859102767e"},"id":"121","coords":{"coordinates":[-71.052391,42.320685],"type":"Point"},"name":"Columbia Rd @ JFK/UMASS Station","neighs":["139","place-jfk","138","5203"],"routes":["red","16"],"node":"121","rank":1.0369420373506484},
{"_id":{"$oid":"574c7fee4721a88591027698"},"id":"138","coords":{"coordinates":[-71.048782,42.319965],"type":"Point"},"name":"Mt Vernon St @ Bay Side Expo Center","neighs":["place-jfk","139","1139","121"],"routes":["red","16"],"node":"138","rank":1.0622002874519174},
{"_id":{"$oid":"574c7fee4721a88591027699"},"id":"139","coords":{"coordinates":[-71.04686,42.319313],"type":"Point"},"name":"263 Mt Vernon St @ St Christopher's Church","neighs":["121","place-jfk","140","1139","138"],"routes":["red","16"],"node":"139","rank":1.3207620421440083},
{"_id":{"$oid":"574c7fee4721a88591027678"},"id":"1139","coords":{"coordinates":[-71.044235,42.318447],"type":"Point"},"name":"Mt Vernon St opp Harbor Point Blvd","neighs":["138","142","140","139"],"routes":["16"],"node":"1139","rank":1.150879018119519},
{"_id":{"$oid":"574c7fee4721a8859102769b"},"id":"140","coords":{"coordinates":[-71.042801,42.317913],"type":"Point"},"name":"Mt Vernon St @ Paul A. Dever School","neighs":["139","142","1139"],"routes":["16"],"node":"140","rank":0.9119368429778025},
{"_id":{"$oid":"574c7fee4721a8859102769c"},"id":"142","coords":{"coordinates":[-71.040215,42.31707],"type":"Point"},"name":"Mt Vernon St @ South Point Dr","neighs":["1139","11111","140"],"routes":["16"],"node":"142","rank":1.0263938702637387},
{"_id":{"$oid":"574c7fee4721a8859102766d"},"id":"11111","coords":{"coordinates":[-71.036118,42.312008],"type":"Point"},"name":"UMass Boston Busway","neighs":["142"],"routes":["16"],"node":"11111","rank":0.4429912269146724},
{"_id":{"$oid":"574c7fee4721a885910276ae"},"id":"17862","coords":{"coordinates":[-71.088961,42.336377],"type":"Point"},"name":"Ruggles Station - Lane 1","neighs":["81317","place-nuniv","place-rugg","11257"],"routes":["39","green-e","orange","23"],"node":"17862","rank":0.612924931521047},
{"_id":{"$oid":"574c7fee4721a88591027671"},"id":"11257","coords":{"coordinates":[-71.09269,42.331196],"type":"Point"},"name":"Malcolm X Blvd @ King St","neighs":["11149","1357","11323","place-rcmnl","13590","11148","17862","1259","21148"],"routes":["66","orange","23"],"node":"11257","rank":1.1654917790158852},
{"_id":{"$oid":"574c7fee4721a88591027681"},"id":"1259","coords":{"coordinates":[-71.089859,42.330975],"type":"Point"},"name":"Malcolm X Blvd opp Madison Park HS","neighs":["1357","21148","11149","11148","place-rcmnl","11323","11259","1148","11257"],"routes":["66","orange","23"],"node":"1259","rank":1.1529312314861093},
{"_id":{"$oid":"574c7fee4721a88591027677"},"id":"11323","coords":{"coordinates":[-71.088417,42.330605],"type":"Point"},"name":"Malcolm X Blvd opp O'Bryant HS","neighs":["1","21148","64000","11149","64","11148","11257","1148","11259","1259"],"routes":["1","66","23"],"node":"11323","rank":1.2598938309117471},
{"_id":{"$oid":"574c7fee4721a88591027672"},"id":"11259","coords":{"coordinates":[-71.086205,42.329483],"type":"Point"},"name":"Malcolm X Blvd @ Shawmut Ave","neighs":["1259","1","11149","11148","64","1148","399","64000","11323"],"routes":["1","66","23"],"node":"11259","rank":1.1636434039170591},
{"_id":{"$oid":"574c7fee4721a885910277b9"},"id":"64000","coords":{"coordinates":[-71.083984,42.329544],"type":"Point"},"name":"Dudley Station","neighs":["11323","40001","2","11149","1","64","6","399","1148","11259"],"routes":["1","66","23"],"node":"64000","rank":1.3577165009245096},
{"_id":{"$oid":"574c7fee4721a88591027736"},"id":"399","coords":{"coordinates":[-71.083313,42.327385],"type":"Point"},"name":"Warren St opp Kearsage Ave","neighs":["1","1148","11259","64","64000","401","40001"],"routes":["1","66","23"],"node":"399","rank":1.0399007572510572},
{"_id":{"$oid":"574c7fee4721a88591027737"},"id":"40001","coords":{"coordinates":[-71.083397,42.325352],"type":"Point"},"name":"Warren St @ Dabney Pl","neighs":["64","399","64000","404","401"],"routes":["1","66","23"],"node":"40001","rank":0.8748353163882207},
{"_id":{"$oid":"574c7fee4721a88591027738"},"id":"401","coords":{"coordinates":[-71.082886,42.323921],"type":"Point"},"name":"Warren St @ Walnut Ave","neighs":["405","399","404","40001"],"routes":["23"],"node":"401","rank":0.822611592986216},
{"_id":{"$oid":"574c7fee4721a88591027739"},"id":"404","coords":{"coordinates":[-71.0821,42.321537],"type":"Point"},"name":"Warren St opp Waverly St","neighs":["406","40001","405","401"],"routes":["23"],"node":"404","rank":0.8991417188657369},
{"_id":{"$oid":"574c7fee4721a8859102773a"},"id":"405","coords":{"coordinates":[-71.081627,42.319931],"type":"Point"},"name":"Warren St opp Woodbine St","neighs":["401","407","406","404"],"routes":["23"],"node":"405","rank":0.9605571190796487},
{"_id":{"$oid":"574c7fee4721a8859102773b"},"id":"406","coords":{"coordinates":[-71.082123,42.318134],"type":"Point"},"name":"Warren St @ ML King Blvd","neighs":["404","407","405"],"routes":["23"],"node":"406","rank":0.7707764083236521},
{"_id":{"$oid":"574c7fee4721a8859102773c"},"id":"407","coords":{"coordinates":[-71.083031,42.316227],"type":"Point"},"name":"Warren St @ Townsend St","neighs":["405","410","406"],"routes":["23"],"node":"407","rank":0.7864196190546565},
{"_id":{"$oid":"574c7fee4721a8859102773d"},"id":"410","coords":{"coordinates":[-71.083656,42.313263],"type":"Point"},"name":"Warren St @ Waumbeck St","neighs":["412","411","407"],"routes":["23"],"node":"410","rank":0.7459254520605769},
{"_id":{"$oid":"574c7fee4721a8859102773e"},"id":"411","coords":{"coordinates":[-71.082985,42.311707],"type":"Point"},"name":"Warren St @ Brunswick St","neighs":["471","412","410"],"routes":["23"],"node":"411","rank":0.6851177255115015},
{"_id":{"$oid":"574c7fee4721a8859102773f"},"id":"412","coords":{"coordinates":[-71.08326,42.310421],"type":"Point"},"name":"Warren St @ Crawford St","neighs":["410","471","472","411"],"routes":["23"],"node":"412","rank":0.8370041940084063},
{"_id":{"$oid":"574c7fee4721a88591027746"},"id":"471","coords":{"coordinates":[-71.082886,42.307873],"type":"Point"},"name":"Washington St @ Blue Hill Ave","neighs":["2926","2925","468","411","472","2924","412"],"routes":["16","23"],"node":"471","rank":1.1986079105500376},
{"_id":{"$oid":"574c7fee4721a88591027748"},"id":"472","coords":{"coordinates":[-71.081657,42.306278],"type":"Point"},"name":"Washington St @ Jeremiah Burke HS","neighs":["2923","2904","412","2924","2926","2925","475","468","471"],"routes":["16","23"],"node":"472","rank":1.4377162337159402},
{"_id":{"$oid":"574c7fee4721a88591027745"},"id":"468","coords":{"coordinates":[-71.080696,42.305458],"type":"Point"},"name":"Washington St @ Columbia Rd","neighs":["2923","2904","471","2924","2926","2925","2928","475","472"],"routes":["16","23"],"node":"468","rank":1.4170706144143213},
{"_id":{"$oid":"574c7fee4721a88591027749"},"id":"475","coords":{"coordinates":[-71.078522,42.303223],"type":"Point"},"name":"Washington St @ Erie St","neighs":["472","2904","468","477","2924","2926","2925"],"routes":["16","23"],"node":"475","rank":1.1750223240146611},
{"_id":{"$oid":"574c7fee4721a8859102774a"},"id":"477","coords":{"coordinates":[-71.075844,42.300747],"type":"Point"},"name":"Washington St @ Vassar St","neighs":["478","480","475"],"routes":["23"],"node":"477","rank":0.7394771057242214},
{"_id":{"$oid":"574c7fee4721a8859102774b"},"id":"478","coords":{"coordinates":[-71.073662,42.299263],"type":"Point"},"name":"Washington St @ Harvard St","neighs":["482","480","477"],"routes":["23"],"node":"478","rank":0.8023325199545128},
{"_id":{"$oid":"574c7fee4721a8859102774c"},"id":"480","coords":{"coordinates":[-71.072685,42.297619],"type":"Point"},"name":"Washington St @ Algonquin St","neighs":["477","483","482","478"],"routes":["23"],"node":"480","rank":1.0342364443562462},
{"_id":{"$oid":"574c7fee4721a8859102774d"},"id":"482","coords":{"coordinates":[-71.072197,42.295399],"type":"Point"},"name":"Washington St @ Park St","neighs":["478","485","483","480"],"routes":["23"],"node":"482","rank":1.0500319615680198},
{"_id":{"$oid":"574c7fee4721a8859102774e"},"id":"483","coords":{"coordinates":[-71.071983,42.293797],"type":"Point"},"name":"Washington St @ Wheatland Ave","neighs":["426","480","485","482"],"routes":["23"],"node":"483","rank":1.055694500134969},
{"_id":{"$oid":"574c7fee4721a8859102774f"},"id":"485","coords":{"coordinates":[-71.071762,42.291447],"type":"Point"},"name":"Washington St @ Southern Ave","neighs":["482","428","426","483"],"routes":["23"],"node":"485","rank":1.0748945789402946},
{"_id":{"$oid":"574c7fee4721a88591027740"},"id":"426","coords":{"coordinates":[-71.069977,42.289944],"type":"Point"},"name":"Talbot Ave @ Lithgow St","neighs":["428","place-smmnl","483","485"],"routes":["red","23"],"node":"426","rank":1.100669606975339},
{"_id":{"$oid":"574c7fee4721a88591027741"},"id":"428","coords":{"coordinates":[-71.066971,42.288963],"type":"Point"},"name":"Talbot Ave @ Welles Ave","neighs":["485","place-smmnl","430","426"],"routes":["red","23"],"node":"428","rank":1.1427107939127699},
{"_id":{"$oid":"574c7fee4721a88591027742"},"id":"430","coords":{"coordinates":[-71.064499,42.286037],"type":"Point"},"name":"Talbot Ave @ Dorchester Ave","neighs":["place-asmnl","334","428"],"routes":["red","23"],"node":"430","rank":0.9705496124187128},
{"_id":{"$oid":"574c7fee4721a8859102772f"},"id":"334","coords":{"coordinates":[-71.064489,42.284652],"type":"Point"},"name":"Ashmont Station","neighs":["place-asmnl","430"],"routes":["red","23"],"node":"334","rank":0.7034496465658274},
{"_id":{"$oid":"574c7fee4721a885910277e7"},"id":"8750","coords":{"coordinates":[-71.113686,42.300523],"type":"Point"},"name":"Forest Hills Station","neighs":["875","place-forhl","520","1936"],"routes":["orange","16","39"],"node":"8750","rank":1.045713108166884},
{"_id":{"$oid":"574c7fee4721a885910276b4"},"id":"1936","coords":{"coordinates":[-71.114632,42.303741],"type":"Point"},"name":"South St @ Spalding St","neighs":["1938","520","place-forhl","875","1937","8750"],"routes":["orange","16","39"],"node":"1936","rank":1.5686474198203297},
{"_id":{"$oid":"574c7fee4721a885910276b5"},"id":"1937","coords":{"coordinates":[-71.115143,42.306545],"type":"Point"},"name":"South St @ Child St","neighs":["1128","1938","1936"],"routes":["39"],"node":"1937","rank":0.9238089406864589},
{"_id":{"$oid":"574c7fee4721a885910276b6"},"id":"1938","coords":{"coordinates":[-71.115456,42.3078],"type":"Point"},"name":"South St @ Carolina Ave","neighs":["1936","1128","1937"],"routes":["39"],"node":"1938","rank":0.9238089406864589},
{"_id":{"$oid":"574c7fee4721a88591027673"},"id":"1128","coords":{"coordinates":[-71.115486,42.30859],"type":"Point"},"name":"South St @ Sedgwick St","neighs":["1937","1129","1938"],"routes":["39"],"node":"1128","rank":1.020540174737111},
{"_id":{"$oid":"574c7fee4721a88591027674"},"id":"1129","coords":{"coordinates":[-71.114143,42.312199],"type":"Point"},"name":"Centre St @ Seaverns Ave","neighs":["1130","1128"],"routes":["39"],"node":"1129","rank":0.817430013310577},
{"_id":{"$oid":"574c7fee4721a88591027675"},"id":"1130","coords":{"coordinates":[-71.114037,42.314198],"type":"Point"},"name":"Centre St @ Saint John St","neighs":["1132","1129"],"routes":["39"],"node":"1130","rank":0.881467744471877},
{"_id":{"$oid":"574c7fee4721a88591027676"},"id":"1132","coords":{"coordinates":[-71.113365,42.316952],"type":"Point"},"name":"Centre St @ Robinwood Ave","neighs":["11131","1130"],"routes":["39"],"node":"1132","rank":0.9002816817979883},
{"_id":{"$oid":"574c7fee4721a8859102766e"},"id":"11131","coords":{"coordinates":[-71.111931,42.318993],"type":"Point"},"name":"Centre St @ Roseway","neighs":["6570","1132"],"routes":["39"],"node":"11131","rank":0.8721225872617088},
{"_id":{"$oid":"574c7fee4721a885910277ba"},"id":"6570","coords":{"coordinates":[-71.112022,42.321697],"type":"Point"},"name":"S Huntington Ave @ Perkins St","neighs":["6571","11131"],"routes":["39"],"node":"6570","rank":0.7907650085847693},
{"_id":{"$oid":"574c7fee4721a885910277bb"},"id":"6571","coords":{"coordinates":[-71.11219,42.323811],"type":"Point"},"name":"S Huntington Ave @ Bynner St","neighs":["6573","6570"],"routes":["39"],"node":"6571","rank":0.6285109822397256},
{"_id":{"$oid":"574c7fee4721a885910277bc"},"id":"6573","coords":{"coordinates":[-71.111282,42.326595],"type":"Point"},"name":"S Huntington Ave @ VA Hospital","neighs":["place-hsmnl","6574","place-bckhl","65741","6571"],"routes":["green-e","39"],"node":"6573","rank":0.825144386710235},
{"_id":{"$oid":"574c7fee4721a885910277bd"},"id":"6574","coords":{"coordinates":[-71.110559,42.328681],"type":"Point"},"name":"S Huntington Ave @ Heath St","neighs":["1366","6575","place-rvrwy","1315","65741","place-bckhl","place-hsmnl","6573"],"routes":["66","green-e","39"],"node":"6574","rank":0.9826836260112207},
{"_id":{"$oid":"574c7fee4721a885910277be"},"id":"65741","coords":{"coordinates":[-71.110931,42.329403],"type":"Point"},"name":"100 S Huntington Ave","neighs":["1365","place-mispk","1366","place-rvrwy","1315","place-bckhl","6573","6574","place-hsmnl","6575"],"routes":["66","green-e","39"],"node":"65741","rank":1.1697208457462205},
{"_id":{"$oid":"574c7fee4721a885910277bf"},"id":"6575","coords":{"coordinates":[-71.111969,42.331871],"type":"Point"},"name":"S Huntington Ave @ Huntington Ave","neighs":["place-hsmnl","6574","place-bvmnl","1365","place-mispk","1366","place-bckhl","65741","1315","place-rvrwy","1526"],"routes":["green-d","66","green-e","39"],"node":"6575","rank":1.2899450403966861},
{"_id":{"$oid":"574c7fee4721a88591027686"},"id":"1315","coords":{"coordinates":[-71.10968,42.333092],"type":"Point"},"name":"Huntington Ave @ Parker Hill Ave","neighs":["place-hsmnl","6574","place-brmnl","1363","1362","place-rvrwy","1366","place-mispk","65741","place-bckhl","place-fenwd","1365","1317","6575"],"routes":["66","green-e","39"],"node":"1315","rank":1.4971172426615469},
{"_id":{"$oid":"574c7fee4721a88591027687"},"id":"1317","coords":{"coordinates":[-71.104609,42.334229],"type":"Point"},"name":"Huntington Ave opp Fenwood Rd","neighs":["place-mispk","1363","place-lngmd","1365","1362","1360","31317","place-fenwd","1315","place-brmnl","21317"],"routes":["66","green-e","39"],"node":"1317","rank":1.1880450810075458},
{"_id":{"$oid":"574c7fee4721a885910276bb"},"id":"21317","coords":{"coordinates":[-71.102699,42.334831],"type":"Point"},"name":"Huntington Ave @ Wigglesworth St","neighs":["13590","11780","place-lngmd","1360","1363","1362","31317","place-fenwd","place-brmnl","1317"],"routes":["57","green-e","66","39"],"node":"21317","rank":1.1380022574294713},
{"_id":{"$oid":"574c7fee4721a8859102772e"},"id":"31317","coords":{"coordinates":[-71.099869,42.335831],"type":"Point"},"name":"Huntington Ave @ Longwood Ave","neighs":["place-brmnl","place-mfa","1317","13590","11780","1360","1362","11781","place-lngmd","51317","21317"],"routes":["57","66","green-e","39"],"node":"31317","rank":1.331893184449004},
{"_id":{"$oid":"574c7fee4721a88591027759"},"id":"51317","coords":{"coordinates":[-71.095268,42.337612],"type":"Point"},"name":"Huntington Ave @ Ruggles St","neighs":["place-lngmd","place-mfa","81317","31317"],"routes":["green-e","39"],"node":"51317","rank":0.5950716679910738},
{"_id":{"$oid":"574c7fee4721a885910277c3"},"id":"81317","coords":{"coordinates":[-71.088806,42.340401],"type":"Point"},"name":"360 Huntington Ave","neighs":["188","89","17862","place-rugg","place-nuniv","51317","91317","place-masta","place-symcl"],"routes":["orange","23","1","green-e","39"],"node":"81317","rank":1.202288794217334},
{"_id":{"$oid":"574c7fee4721a885910277ec"},"id":"91317","coords":{"coordinates":[-71.08651,42.341244],"type":"Point"},"name":"Huntington Ave @ Gainsborough St","neighs":["91","88","188","89","place-nuniv","place-masta","place-symcl","1399","81317"],"routes":["orange","1","green-e","39"],"node":"91317","rank":1.1792041621272458},
{"_id":{"$oid":"574c7fee4721a8859102769a"},"id":"1399","coords":{"coordinates":[-71.081932,42.345531],"type":"Point"},"name":"Belvidere St @ Huntington Ave","neighs":["place-masta","place-symcl","89","place-prmnl","91317","91","188","11390"],"routes":["orange","1","green-e","39"],"node":"1399","rank":1.085969929072657},
{"_id":{"$oid":"574c7fee4721a88591027679"},"id":"11390","coords":{"coordinates":[-71.08548,42.347778],"type":"Point"},"name":"Dalton St @ Boylston St","neighs":["95","91","1399","175","place-prmnl","93","place-hymnl"],"routes":["green-e","1","green","39"],"node":"11390","rank":1.1336285348381283},
{"_id":{"$oid":"574c7fee4721a885910276ad"},"id":"175","coords":{"coordinates":[-71.077447,42.349974],"type":"Point"},"name":"Boylston St @ Dartmouth St","neighs":["23391","143","place-bbsta","place-coecl","11390"],"routes":["orange","green-e","green","39"],"node":"175","rank":0.9256280546223328},
{"_id":{"$oid":"574c7fee4721a8859102769d"},"id":"143","coords":{"coordinates":[-71.075287,42.350594],"type":"Point"},"name":"Boylston St @ Clarendon St","neighs":["place-armnl","place-bbsta","23391","place-coecl","175"],"routes":["orange","green-e","green","39"],"node":"143","rank":0.9673726523951178},
{"_id":{"$oid":"574c7fee4721a885910276c0"},"id":"23391","coords":{"coordinates":[-71.075727,42.34735],"type":"Point"},"name":"Back Bay Station","neighs":["175","place-coecl","place-bbsta","143"],"routes":["green-e","orange","green","39"],"node":"23391","rank":0.779586314809431},
{"_id":{"$oid":"574c7fee4721a8859102767c"},"id":"11780","coords":{"coordinates":[-71.102234,42.338444],"type":"Point"},"name":"Ave Louis Pasteur @ Longwood Ave","neighs":["21317","place-lngmd","31317","11781"],"routes":["39","green-e","57"],"node":"11780","rank":0.5844873841006811},
{"_id":{"$oid":"574c7fee4721a8859102767d"},"id":"11781","coords":{"coordinates":[-71.100838,42.340233],"type":"Point"},"name":"Ave Louis Pasteur @ The Fenway","neighs":["place-lngmd","31317","11520","11780"],"routes":["39","green-e","57"],"node":"11781","rank":0.624152112640905},
{"_id":{"$oid":"574c7fee4721a8859102767b"},"id":"11520","coords":{"coordinates":[-71.103287,42.343906],"type":"Point"},"name":"Park Dr @ Fenway Sta","neighs":["place-smary","1808","11781","1807","place-fenwy"],"routes":["green-c","green-d","57"],"node":"11520","rank":0.850845806841429},
{"_id":{"$oid":"574c7fee4721a885910276af"},"id":"1807","coords":{"coordinates":[-71.104187,42.345394],"type":"Point"},"name":"Park Dr @ Fenway Station","neighs":["1809","place-fenwy","place-smary","1808","place-buest","11520"],"routes":["green-c","green-b","green-d","57"],"node":"1807","rank":1.0042248099282782},
{"_id":{"$oid":"574c7fee4721a885910276b0"},"id":"1808","coords":{"coordinates":[-71.105194,42.347099],"type":"Point"},